[
  {
    "name": "VILA SÃO JOSÉ DO XINGU",
    "codigoestacao": "1052000",
    "lat": -10.8072,
    "lng": -52.7461,
    "altitude": "337.0",
    "bacia": "RIO AMAZONAS",
    "municipio": "SÃO JOSÉ DO XINGU",
    "ultimaAtualizacao": "2022-03-25 00:00:00.0",
    "tipoEstacao": "Pluviometrica"
  },
  {
    "name": "RIO COMANDANTE FONTOURA",
    "codigoestacao": "1052001",
    "lat": -10.5547,
    "lng": -52.1833,
    "altitude": "262.0",
    "bacia": "RIO AMAZONAS",
    "municipio": "PORTO ALEGRE DO NORTE",
    "ultimaAtualizacao": "2022-06-30 00:00:00.0",
    "tipoEstacao": "Pluviometrica"
  },
  {
    "name": "JUSANTE RIO PRETO",
    "codigoestacao": "1052002",
    "lat": -10.0472,
    "lng": -52.1144,
    "altitude": "269.0",
    "bacia": "RIO AMAZONAS",
    "municipio": "VILA RICA",
    "ultimaAtualizacao": "2015-06-30 00:00:00.0",
    "tipoEstacao": "Pluviometrica"
  },
  {
    "name": "PASSAGEM BR-080",
    "codigoestacao": "1053000",
    "lat": -10.7772,
    "lng": -53.0956,
    "altitude": "274.0",
    "bacia": "RIO AMAZONAS",
    "municipio": "SÃO FÉLIX DO ARAGUAIA",
    "ultimaAtualizacao": "2018-10-05 00:00:00.0",
    "tipoEstacao": "Pluviometrica"
  },
  {
    "name": "FAZENDA SANTA EMÍLIA",
    "codigoestacao": "1053001",
    "lat": -10.5592,
    "lng": -53.6067,
    "altitude": "350.0",
    "bacia": "RIO AMAZONAS",
    "municipio": "MARCELÂNDIA",
    "ultimaAtualizacao": "2022-05-04 00:00:00.0",
    "tipoEstacao": "Pluviometrica"
  },
  {
    "name": "SUIA LIQUILÂNDIA",
    "codigoestacao": "1152000",
    "lat": -11.7417,
    "lng": -51.9889,
    "altitude": "380.0",
    "bacia": "RIO AMAZONAS",
    "municipio": "SÃO FÉLIX DO ARAGUAIA",
    "ultimaAtualizacao": "2022-08-19 00:00:00.0",
    "tipoEstacao": "Pluviometrica"
  },
  {
    "name": "SUIÁ-MIÇU  (Brasil Novo)",
    "codigoestacao": "18428100",
    "lat": -11.8386,
    "lng": -52.2519,
    "altitude": "N/A",
    "bacia": "RIO AMAZONAS",
    "municipio": "QUERÊNCIA",
    "ultimaAtualizacao": "2023-09-20 00:00:00.0",
    "tipoEstacao": "Fluviometrica"
  },
  {
    "name": "PASSAGEM BR-080",
    "codigoestacao": "18430000",
    "lat": -10.7772,
    "lng": -53.0956,
    "altitude": "274.0",
    "bacia": "RIO AMAZONAS",
    "municipio": "MARCELÂNDIA",
    "ultimaAtualizacao": "2023-09-20 00:00:00.0",
    "tipoEstacao": "Fluviometrica"
  },
  {
    "name": "RIO COMANDANTE FONTOURA",
    "codigoestacao": "18435000",
    "lat": -10.5547,
    "lng": -52.1833,
    "altitude": "259.0",
    "bacia": "RIO AMAZONAS",
    "municipio": "SÃO JOSÉ DO XINGU",
    "ultimaAtualizacao": "2023-09-20 00:00:00.0",
    "tipoEstacao": "Fluviometrica"
  },
  {
    "name": "JUSANTE RIO PRETO",
    "codigoestacao": "18436000",
    "lat": -10.0472,
    "lng": -52.1144,
    "altitude": "269.0",
    "bacia": "RIO AMAZONAS",
    "municipio": "VILA RICA",
    "ultimaAtualizacao": "2023-09-20 00:00:00.0",
    "tipoEstacao": "Fluviometrica"
  },
  {
    "name": "MT-442",
    "codigoestacao": "18425200",
    "lat": -11.9283,
    "lng": -54.9983,
    "altitude": "N/A",
    "bacia": "RIO AMAZONAS",
    "municipio": "SANTA CARMEM",
    "ultimaAtualizacao": "2014-07-23 00:00:00.0",
    "tipoEstacao": "Fluviometrica"
  },
  {
    "name": "TANGURINHO  (Sítio Tangurinho)",
    "codigoestacao": "18426000",
    "lat": -13.4258,
    "lng": -52.1531,
    "altitude": "367.0",
    "bacia": "RIO AMAZONAS",
    "municipio": "CANARANA",
    "ultimaAtualizacao": "2023-09-20 00:00:00.0",
    "tipoEstacao": "Fluviometrica"
  },
  {
    "name": "TURVO (Sítio novo turvo)",
    "codigoestacao": "18426500",
    "lat": -13.2247,
    "lng": -51.9306,
    "altitude": "329.0",
    "bacia": "RIO AMAZONAS",
    "municipio": "CANARANA",
    "ultimaAtualizacao": "2023-09-20 00:00:00.0",
    "tipoEstacao": "Fluviometrica"
  },
  {
    "name": "BONITO  (Ribeirão Bonito)",
    "codigoestacao": "18426800",
    "lat": -12.9528,
    "lng": -51.8517,
    "altitude": "331.0",
    "bacia": "RIO AMAZONAS",
    "municipio": "RIBEIRÃO CASCALHEIRA",
    "ultimaAtualizacao": "2023-09-20 00:00:00.0",
    "tipoEstacao": "Fluviometrica"
  },
  {
    "name": "CÓRREGO TRINTA (BR-158  kM 30)(Próx Alô brasil)",
    "codigoestacao": "18427000",
    "lat": -12.2486,
    "lng": -51.7122,
    "altitude": "328.0",
    "bacia": "RIO AMAZONAS",
    "municipio": "BOM JESUS DO ARAGUAIA",
    "ultimaAtualizacao": "2023-09-20 00:00:00.0",
    "tipoEstacao": "Fluviometrica"
  },
  {
    "name": "SANTA CRUZ DO SUIA",
    "codigoestacao": "18428000",
    "lat": -12.6219,
    "lng": -52.0589,
    "altitude": "305.0",
    "bacia": "RIO AMAZONAS",
    "municipio": "QUERÊNCIA",
    "ultimaAtualizacao": "2023-09-20 00:00:00.0",
    "tipoEstacao": "Fluviometrica"
  },
  {
    "name": "CONSUL",
    "codigoestacao": "18423000",
    "lat": -12.3658,
    "lng": -54.4892,
    "altitude": "303.0",
    "bacia": "RIO AMAZONAS",
    "municipio": "FELIZ NATAL",
    "ultimaAtualizacao": "2023-09-20 00:00:00.0",
    "tipoEstacao": "Fluviometrica"
  },
  {
    "name": "TANGURU",
    "codigoestacao": "18423200",
    "lat": -13.4936,
    "lng": -52.2739,
    "altitude": "N/A",
    "bacia": "RIO AMAZONAS",
    "municipio": "CANARANA",
    "ultimaAtualizacao": "2023-09-20 00:00:00.0",
    "tipoEstacao": "Fluviometrica"
  },
  {
    "name": "FAZENDA SÃO JUDAS TADEU",
    "codigoestacao": "18423400",
    "lat": -13.5006,
    "lng": -52.4117,
    "altitude": "N/A",
    "bacia": "RIO AMAZONAS",
    "municipio": "CANARANA",
    "ultimaAtualizacao": "2018-09-17 00:00:00.0",
    "tipoEstacao": "Fluviometrica"
  },
  {
    "name": "DARRO I (Ponte Km 40)",
    "codigoestacao": "18423500",
    "lat": -12.3536,
    "lng": -52.3572,
    "altitude": "292.0",
    "bacia": "RIO AMAZONAS",
    "municipio": "QUERÊNCIA",
    "ultimaAtualizacao": "2023-09-20 00:00:00.0",
    "tipoEstacao": "Fluviometrica"
  },
  {
    "name": "DARRO II (Barra do rio Darro)",
    "codigoestacao": "18423800",
    "lat": -11.8178,
    "lng": -52.4011,
    "altitude": "284.0",
    "bacia": "RIO AMAZONAS",
    "municipio": "QUERÊNCIA",
    "ultimaAtualizacao": "2023-09-20 00:00:00.0",
    "tipoEstacao": "Fluviometrica"
  },
  {
    "name": "FAZENDA MARMELEIRO",
    "codigoestacao": "18425000",
    "lat": -12.7717,
    "lng": -55.3197,
    "altitude": "N/A",
    "bacia": "RIO AMAZONAS",
    "municipio": "SANTA CARMEM",
    "ultimaAtualizacao": "2011-08-23 00:00:00.0",
    "tipoEstacao": "Fluviometrica"
  },
  {
    "name": "PONTE MT 423 RIO AZUL",
    "codigoestacao": "18421600",
    "lat": -11.4717,
    "lng": -54.9939,
    "altitude": "N/A",
    "bacia": "RIO AMAZONAS",
    "municipio": "CLAÚDIA",
    "ultimaAtualizacao": "2018-09-17 00:00:00.0",
    "tipoEstacao": "Fluviometrica"
  },
  {
    "name": "RIACHO DE DEUS",
    "codigoestacao": "18422000",
    "lat": -11.1272,
    "lng": -54.4767,
    "altitude": "280.0",
    "bacia": "RIO AMAZONAS",
    "municipio": "MARCELÂNDIA",
    "ultimaAtualizacao": "2023-09-20 00:00:00.0",
    "tipoEstacao": "Fluviometrica"
  },
  {
    "name": "PCH ARS MONTANTE",
    "codigoestacao": "18422400",
    "lat": -13.1483,
    "lng": -54.8356,
    "altitude": "331.5",
    "bacia": "RIO AMAZONAS",
    "municipio": "NOVA UBIRATÃ",
    "ultimaAtualizacao": "2017-05-11 00:00:00.0",
    "tipoEstacao": "Fluviometrica"
  },
  {
    "name": "PCH ARS BARRAMENTO",
    "codigoestacao": "18422480",
    "lat": -13.0983,
    "lng": -54.8181,
    "altitude": "331.5",
    "bacia": "RIO AMAZONAS",
    "municipio": "NOVA UBIRATÃ",
    "ultimaAtualizacao": "2017-05-11 00:00:00.0",
    "tipoEstacao": "Fluviometrica"
  },
  {
    "name": "PCH ARS JUSANTE 1",
    "codigoestacao": "18422500",
    "lat": -13.0975,
    "lng": -54.8183,
    "altitude": "331.5",
    "bacia": "RIO AMAZONAS",
    "municipio": "NOVA UBIRATÃ",
    "ultimaAtualizacao": "2017-05-11 00:00:00.0",
    "tipoEstacao": "Fluviometrica"
  },
  {
    "name": "PCH ARS JUSANTE 2",
    "codigoestacao": "18422600",
    "lat": -12.7847,
    "lng": -54.6806,
    "altitude": "400.0",
    "bacia": "RIO AMAZONAS",
    "municipio": "NOVA UBIRATÃ",
    "ultimaAtualizacao": "2017-05-11 00:00:00.0",
    "tipoEstacao": "Fluviometrica"
  },
  {
    "name": "FAZENDA ROSANGELA (RET.BECK)",
    "codigoestacao": "18409550",
    "lat": -13.9239,
    "lng": -53.2864,
    "altitude": "339.0",
    "bacia": "RIO AMAZONAS",
    "municipio": "PARANATINGA",
    "ultimaAtualizacao": "2014-09-08 00:00:00.0",
    "tipoEstacao": "Fluviometrica"
  },
  {
    "name": "PCH PARANATINGA II BARRAMENTO",
    "codigoestacao": "18409600",
    "lat": -13.8517,
    "lng": -53.2558,
    "altitude": "343.0",
    "bacia": "RIO AMAZONAS",
    "municipio": "CAMPINÁPOLIS",
    "ultimaAtualizacao": "2014-09-08 00:00:00.0",
    "tipoEstacao": "Fluviometrica"
  },
  {
    "name": "PCH PARANATINGA II JUSANTE",
    "codigoestacao": "18409650",
    "lat": -13.8475,
    "lng": -53.2597,
    "altitude": "326.0",
    "bacia": "RIO AMAZONAS",
    "municipio": "CAMPINÁPOLIS",
    "ultimaAtualizacao": "2014-09-08 00:00:00.0",
    "tipoEstacao": "Fluviometrica"
  },
  {
    "name": "POUSADA MATRINXA",
    "codigoestacao": "18415000",
    "lat": -13.5692,
    "lng": -53.0761,
    "altitude": "323.0",
    "bacia": "RIO AMAZONAS",
    "municipio": "CANARANA",
    "ultimaAtualizacao": "2023-09-20 00:00:00.0",
    "tipoEstacao": "Fluviometrica"
  },
  {
    "name": "FAZENDA ITAGUAÇU",
    "codigoestacao": "18420000",
    "lat": -13.1408,
    "lng": -54.4453,
    "altitude": "317.0",
    "bacia": "RIO AMAZONAS",
    "municipio": "PARANATINGA",
    "ultimaAtualizacao": "2023-09-20 00:00:00.0",
    "tipoEstacao": "Fluviometrica"
  },
  {
    "name": "FOZ RONURO",
    "codigoestacao": "18421000",
    "lat": -12.3692,
    "lng": -54.1383,
    "altitude": "N/A",
    "bacia": "RIO AMAZONAS",
    "municipio": "FELIZ NATAL",
    "ultimaAtualizacao": "2023-09-20 00:00:00.0",
    "tipoEstacao": "Fluviometrica"
  },
  {
    "name": "PASSAGEM DA BR-309",
    "codigoestacao": "18409000",
    "lat": -14.6111,
    "lng": -53.9986,
    "altitude": "570.0",
    "bacia": "RIO AMAZONAS",
    "municipio": "PARANATINGA",
    "ultimaAtualizacao": "2023-09-19 00:00:00.0",
    "tipoEstacao": "Fluviometrica"
  },
  {
    "name": "PONTE DE PEDRA",
    "codigoestacao": "18409200",
    "lat": -14.6667,
    "lng": -53.8167,
    "altitude": "471.0",
    "bacia": "RIO AMAZONAS",
    "municipio": "CUIABÁ",
    "ultimaAtualizacao": "2014-09-08 00:00:00.0",
    "tipoEstacao": "Fluviometrica"
  },
  {
    "name": "PCH PARANATINGA I MONTANTE 3",
    "codigoestacao": "18409300",
    "lat": -14.645,
    "lng": -53.7772,
    "altitude": "447.0",
    "bacia": "RIO AMAZONAS",
    "municipio": "PRIMAVERA DO LESTE",
    "ultimaAtualizacao": "2013-02-21 00:00:00.0",
    "tipoEstacao": "Fluviometrica"
  },
  {
    "name": "PCH CULUENE JUSANTE 2",
    "codigoestacao": "18409350",
    "lat": -14.5744,
    "lng": -53.6967,
    "altitude": "434.0",
    "bacia": "RIO AMAZONAS",
    "municipio": "PARANATINGA",
    "ultimaAtualizacao": "2015-07-22 00:00:00.0",
    "tipoEstacao": "Fluviometrica"
  },
  {
    "name": "PCH PARANATINGA I MONTANTE 2",
    "codigoestacao": "18409400",
    "lat": -14.0264,
    "lng": -53.3569,
    "altitude": "360.0",
    "bacia": "RIO AMAZONAS",
    "municipio": "CAMPINÁPOLIS",
    "ultimaAtualizacao": "2013-02-21 00:00:00.0",
    "tipoEstacao": "Fluviometrica"
  },
  {
    "name": "PCH PARANTINGA I",
    "codigoestacao": "18409500",
    "lat": -14.0067,
    "lng": -53.3419,
    "altitude": "362.0",
    "bacia": "RIO AMAZONAS",
    "municipio": "CAMPINÁPOLIS",
    "ultimaAtualizacao": "2013-02-21 00:00:00.0",
    "tipoEstacao": "Fluviometrica"
  },
  {
    "name": "PCH CULUENE JUSANTE 2",
    "codigoestacao": "1453008",
    "lat": -14.5744,
    "lng": -53.6967,
    "altitude": "434.0",
    "bacia": "RIO AMAZONAS",
    "municipio": "PARANATINGA",
    "ultimaAtualizacao": "2015-07-22 00:00:00.0",
    "tipoEstacao": "Pluviometrica"
  },
  {
    "name": "BATOVI",
    "codigoestacao": "1454001",
    "lat": -14,
    "lng": -54.1,
    "altitude": "459.0",
    "bacia": "RIO AMAZONAS",
    "municipio": "CHAPADA DOS GUIMARÃES",
    "ultimaAtualizacao": "2010-09-27 00:00:00.0",
    "tipoEstacao": "Pluviometrica"
  },
  {
    "name": "PCH CULUENE MONTANTE",
    "codigoestacao": "18407500",
    "lat": -14.6317,
    "lng": -53.9242,
    "altitude": "486.0",
    "bacia": "RIO AMAZONAS",
    "municipio": "PARANATINGA",
    "ultimaAtualizacao": "2015-07-22 00:00:00.0",
    "tipoEstacao": "Fluviometrica"
  },
  {
    "name": "PCH CULUENE BARRAMENTO",
    "codigoestacao": "18408000",
    "lat": -14.6333,
    "lng": -53.9128,
    "altitude": "470.0",
    "bacia": "RIO AMAZONAS",
    "municipio": "PRIMAVERA DO LESTE",
    "ultimaAtualizacao": "2015-07-22 00:00:00.0",
    "tipoEstacao": "Fluviometrica"
  },
  {
    "name": "PCH CULUENE JUSANTE 1",
    "codigoestacao": "18408500",
    "lat": -14.6297,
    "lng": -53.9097,
    "altitude": "461.0",
    "bacia": "RIO AMAZONAS",
    "municipio": "PARANATINGA",
    "ultimaAtualizacao": "2015-07-22 00:00:00.0",
    "tipoEstacao": "Fluviometrica"
  },
  {
    "name": "PASSAGEM DA BR-309",
    "codigoestacao": "18408900",
    "lat": -14.6131,
    "lng": -54.0156,
    "altitude": "544.0",
    "bacia": "RIO AMAZONAS",
    "municipio": "PARANATINGA",
    "ultimaAtualizacao": "2023-09-19 00:00:00.0",
    "tipoEstacao": "Fluviometrica"
  },
  {
    "name": "PASSAGEM DA BR-309",
    "codigoestacao": "1453000",
    "lat": -14.6119,
    "lng": -53.9986,
    "altitude": "549.0",
    "bacia": "RIO AMAZONAS",
    "municipio": "PARANATINGA",
    "ultimaAtualizacao": "2022-01-26 00:00:00.0",
    "tipoEstacao": "Pluviometrica"
  },
  {
    "name": "FAZENDA BECKER",
    "codigoestacao": "1453001",
    "lat": -14.0333,
    "lng": -53.4,
    "altitude": "364.0",
    "bacia": "RIO AMAZONAS",
    "municipio": "PARANATINGA",
    "ultimaAtualizacao": "2010-09-27 00:00:00.0",
    "tipoEstacao": "Pluviometrica"
  },
  {
    "name": "PCH CULUENE JUSANTE 1",
    "codigoestacao": "1453003",
    "lat": -14.6297,
    "lng": -53.9097,
    "altitude": "461.0",
    "bacia": "RIO AMAZONAS",
    "municipio": "PARANATINGA",
    "ultimaAtualizacao": "2015-07-22 00:00:00.0",
    "tipoEstacao": "Pluviometrica"
  },
  {
    "name": "PCH PARATINGA I MONTANTE 2",
    "codigoestacao": "1453005",
    "lat": -14.0264,
    "lng": -53.3569,
    "altitude": "360.0",
    "bacia": "RIO AMAZONAS",
    "municipio": "CAMPINÁPOLIS",
    "ultimaAtualizacao": "2013-02-21 00:00:00.0",
    "tipoEstacao": "Pluviometrica"
  },
  {
    "name": "PCH PARATINGA I MONTANTE 3",
    "codigoestacao": "1453006",
    "lat": -14.6447,
    "lng": -53.7772,
    "altitude": "447.0",
    "bacia": "RIO AMAZONAS",
    "municipio": "PRIMAVERA DO LESTE",
    "ultimaAtualizacao": "2013-02-21 00:00:00.0",
    "tipoEstacao": "Pluviometrica"
  },
  {
    "name": "PCH CULUENE MONTANTE",
    "codigoestacao": "1453007",
    "lat": -14.6317,
    "lng": -53.9242,
    "altitude": "486.0",
    "bacia": "RIO AMAZONAS",
    "municipio": "PARANATINGA",
    "ultimaAtualizacao": "2015-07-22 00:00:00.0",
    "tipoEstacao": "Pluviometrica"
  },
  {
    "name": "FAZENDA AGROCHAPADA",
    "codigoestacao": "1354000",
    "lat": -13.4483,
    "lng": -54.2811,
    "altitude": "430.0",
    "bacia": "RIO AMAZONAS",
    "municipio": "PARANATINGA",
    "ultimaAtualizacao": "2022-03-25 00:00:00.0",
    "tipoEstacao": "Pluviometrica"
  },
  {
    "name": "AGROPECUÁRIA MALP",
    "codigoestacao": "1354001",
    "lat": -13.3417,
    "lng": -54.0772,
    "altitude": "390.0",
    "bacia": "RIO AMAZONAS",
    "municipio": "PARANATINGA",
    "ultimaAtualizacao": "2022-03-25 00:00:00.0",
    "tipoEstacao": "Pluviometrica"
  },
  {
    "name": "FAZENDA ITAGUAÇU",
    "codigoestacao": "1354002",
    "lat": -13.1381,
    "lng": -54.4439,
    "altitude": "314.0",
    "bacia": "RIO AMAZONAS",
    "municipio": "PARANATINGA",
    "ultimaAtualizacao": "2022-06-30 00:00:00.0",
    "tipoEstacao": "Pluviometrica"
  },
  {
    "name": "PCH ARS JUSANTE 1",
    "codigoestacao": "1354003",
    "lat": -13.0975,
    "lng": -54.8183,
    "altitude": "331.5",
    "bacia": "RIO AMAZONAS",
    "municipio": "NOVA UBIRATÃ",
    "ultimaAtualizacao": "2017-05-11 00:00:00.0",
    "tipoEstacao": "Pluviometrica"
  },
  {
    "name": "PCH ARS MONTANTE",
    "codigoestacao": "1354004",
    "lat": -13.1483,
    "lng": -54.8356,
    "altitude": "331.5",
    "bacia": "RIO AMAZONAS",
    "municipio": "NOVA UBIRATÃ",
    "ultimaAtualizacao": "2017-05-11 00:00:00.0",
    "tipoEstacao": "Pluviometrica"
  },
  {
    "name": "ÁGUA BOA",
    "codigoestacao": "1452004",
    "lat": -14.0764,
    "lng": -52.1503,
    "altitude": "430.0",
    "bacia": "RIO AMAZONAS",
    "municipio": "ÁGUA BOA",
    "ultimaAtualizacao": "2022-03-25 00:00:00.0",
    "tipoEstacao": "Pluviometrica"
  },
  {
    "name": "CANARANA",
    "codigoestacao": "1352003",
    "lat": -13.5,
    "lng": -52.5,
    "altitude": "430.0",
    "bacia": "RIO AMAZONAS",
    "municipio": "CANARANA",
    "ultimaAtualizacao": "2010-11-12 00:00:00.0",
    "tipoEstacao": "Pluviometrica"
  },
  {
    "name": "FAZENDA SÃO JUDAS TADEU",
    "codigoestacao": "1352004",
    "lat": -13.5006,
    "lng": -52.4114,
    "altitude": "N/A",
    "bacia": "RIO AMAZONAS",
    "municipio": "CANARANA",
    "ultimaAtualizacao": "2011-09-13 00:00:00.0",
    "tipoEstacao": "Pluviometrica"
  },
  {
    "name": "FAZENDA ROSANGELA",
    "codigoestacao": "1353000",
    "lat": -13.8,
    "lng": -53.2667,
    "altitude": "371.0",
    "bacia": "RIO AMAZONAS",
    "municipio": "CHAPADA DOS GUIMARÃES",
    "ultimaAtualizacao": "2010-09-27 00:00:00.0",
    "tipoEstacao": "Pluviometrica"
  },
  {
    "name": "ESTÂNCIA RODEIO",
    "codigoestacao": "1353001",
    "lat": -13.8419,
    "lng": -53.2417,
    "altitude": "352.0",
    "bacia": "RIO AMAZONAS",
    "municipio": "CAMPINÁPOLIS",
    "ultimaAtualizacao": "2022-03-25 00:00:00.0",
    "tipoEstacao": "Pluviometrica"
  },
  {
    "name": "POUSADA MATRINXA",
    "codigoestacao": "1353002",
    "lat": -13.57,
    "lng": -53.0744,
    "altitude": "319.0",
    "bacia": "RIO AMAZONAS",
    "municipio": "CANARANA",
    "ultimaAtualizacao": "2022-06-30 00:00:00.0",
    "tipoEstacao": "Pluviometrica"
  },
  {
    "name": "PCH PARANATINGA II JUSANTE",
    "codigoestacao": "1353003",
    "lat": -13.8475,
    "lng": -53.2597,
    "altitude": "326.0",
    "bacia": "RIO AMAZONAS",
    "municipio": "CAMPINÁPOLIS",
    "ultimaAtualizacao": "2014-09-08 00:00:00.0",
    "tipoEstacao": "Pluviometrica"
  },
  {
    "name": "FELIZ NATAL_Sede da Prefeitura Municipal",
    "codigoestacao": "1254005",
    "lat": -12.3887,
    "lng": -54.9359,
    "altitude": "374.0",
    "bacia": "RIO AMAZONAS",
    "municipio": "FELIZ NATAL",
    "ultimaAtualizacao": "N/A",
    "tipoEstacao": "Pluviometrica"
  },
  {
    "name": "PCH ARS JUSANTE 2",
    "codigoestacao": "1254006",
    "lat": -12.7847,
    "lng": -54.6806,
    "altitude": "400.0",
    "bacia": "RIO AMAZONAS",
    "municipio": "NOVA UBIRATÃ",
    "ultimaAtualizacao": "2017-05-11 00:00:00.0",
    "tipoEstacao": "Pluviometrica"
  },
  {
    "name": "NÚCLEO COLONIAL RIO FERRO",
    "codigoestacao": "1255002",
    "lat": -12.5178,
    "lng": -54.9125,
    "altitude": "353.0",
    "bacia": "RIO AMAZONAS",
    "municipio": "FELIZ NATAL",
    "ultimaAtualizacao": "2022-03-25 00:00:00.0",
    "tipoEstacao": "Pluviometrica"
  },
  {
    "name": "FAZENDA SETE DE SETEMBRO",
    "codigoestacao": "1352000",
    "lat": -13.8811,
    "lng": -52.4122,
    "altitude": "324.0",
    "bacia": "RIO AMAZONAS",
    "municipio": "ÁGUA BOA",
    "ultimaAtualizacao": "2022-03-25 00:00:00.0",
    "tipoEstacao": "Pluviometrica"
  },
  {
    "name": "GARAPU",
    "codigoestacao": "1352001",
    "lat": -13.4956,
    "lng": -52.4544,
    "altitude": "351.0",
    "bacia": "RIO AMAZONAS",
    "municipio": "CANARANA",
    "ultimaAtualizacao": "2022-03-25 00:00:00.0",
    "tipoEstacao": "Pluviometrica"
  },
  {
    "name": "SERRA DOURADA",
    "codigoestacao": "1352002",
    "lat": -13.7053,
    "lng": -52.0267,
    "altitude": "443.0",
    "bacia": "RIO AMAZONAS",
    "municipio": "CANARANA",
    "ultimaAtualizacao": "2022-03-25 00:00:00.0",
    "tipoEstacao": "Pluviometrica"
  },
  {
    "name": "XINGU",
    "codigoestacao": "1253001",
    "lat": -12,
    "lng": -53.4,
    "altitude": "300.0",
    "bacia": "RIO AMAZONAS",
    "municipio": "CHAPADA DOS GUIMARÃES",
    "ultimaAtualizacao": "2005-06-13 00:00:00.0",
    "tipoEstacao": "Pluviometrica"
  },
  {
    "name": "RIO FERRO (GLEBA)",
    "codigoestacao": "1254000",
    "lat": -12.5833,
    "lng": -54.75,
    "altitude": "480.0",
    "bacia": "RIO AMAZONAS",
    "municipio": "CHAPADA DOS GUIMARÃES",
    "ultimaAtualizacao": "2010-11-12 00:00:00.0",
    "tipoEstacao": "Pluviometrica"
  },
  {
    "name": "AGROVENSA",
    "codigoestacao": "1254001",
    "lat": -12.8131,
    "lng": -54.7517,
    "altitude": "347.0",
    "bacia": "RIO AMAZONAS",
    "municipio": "VERA",
    "ultimaAtualizacao": "2022-03-25 00:00:00.0",
    "tipoEstacao": "Pluviometrica"
  },
  {
    "name": "CONSUL",
    "codigoestacao": "1254002",
    "lat": -12.3658,
    "lng": -54.4892,
    "altitude": "303.0",
    "bacia": "RIO AMAZONAS",
    "municipio": "FELIZ NATAL",
    "ultimaAtualizacao": "2015-06-30 00:00:00.0",
    "tipoEstacao": "Pluviometrica"
  },
  {
    "name": "AGROPECUÁRIA TRÊS IRMÃOS",
    "codigoestacao": "1254003",
    "lat": -12.7978,
    "lng": -54.2486,
    "altitude": "363.0",
    "bacia": "RIO AMAZONAS",
    "municipio": "PARANATINGA",
    "ultimaAtualizacao": "2022-03-25 00:00:00.0",
    "tipoEstacao": "Pluviometrica"
  },
  {
    "name": "FOZ RONURO",
    "codigoestacao": "1254004",
    "lat": -12.3692,
    "lng": -54.1383,
    "altitude": "N/A",
    "bacia": "RIO AMAZONAS",
    "municipio": "FELIZ NATAL",
    "ultimaAtualizacao": "2022-06-06 00:00:00.0",
    "tipoEstacao": "Pluviometrica"
  },
  {
    "name": "RIACHO DE DEUS",
    "codigoestacao": "1154005",
    "lat": -11.1272,
    "lng": -54.4767,
    "altitude": "280.0",
    "bacia": "RIO AMAZONAS",
    "municipio": "MARCELÂNDIA",
    "ultimaAtualizacao": "2022-01-26 00:00:00.0",
    "tipoEstacao": "Pluviometrica"
  },
  {
    "name": "MT-442",
    "codigoestacao": "1154006",
    "lat": -11.9283,
    "lng": -54.9983,
    "altitude": "N/A",
    "bacia": "RIO AMAZONAS",
    "municipio": "SANTA CARMEM",
    "ultimaAtualizacao": "2011-09-13 00:00:00.0",
    "tipoEstacao": "Pluviometrica"
  },
  {
    "name": "MT-423",
    "codigoestacao": "1154007",
    "lat": -11.4717,
    "lng": -54.9939,
    "altitude": "N/A",
    "bacia": "RIO AMAZONAS",
    "municipio": "CLAÚDIA",
    "ultimaAtualizacao": "2011-09-13 00:00:00.0",
    "tipoEstacao": "Pluviometrica"
  },
  {
    "name": "ALÔ BRASIL",
    "codigoestacao": "1251000",
    "lat": -12.1642,
    "lng": -51.6969,
    "altitude": "339.0",
    "bacia": "RIO AMAZONAS",
    "municipio": "BOM JESUS DO ARAGUAIA",
    "ultimaAtualizacao": "2022-03-25 00:00:00.0",
    "tipoEstacao": "Pluviometrica"
  },
  {
    "name": "DIVÍNEA",
    "codigoestacao": "1251001",
    "lat": -12.9397,
    "lng": -51.8264,
    "altitude": "391.0",
    "bacia": "RIO AMAZONAS",
    "municipio": "RIBEIRÃO CASCALHEIRA",
    "ultimaAtualizacao": "2022-03-25 00:00:00.0",
    "tipoEstacao": "Pluviometrica"
  },
  {
    "name": "SANTA CRUZ DO SUIA",
    "codigoestacao": "1252000",
    "lat": -12.6219,
    "lng": -52.0589,
    "altitude": "305.0",
    "bacia": "RIO AMAZONAS",
    "municipio": "QUERÊNCIA",
    "ultimaAtualizacao": "2022-06-30 00:00:00.0",
    "tipoEstacao": "Pluviometrica"
  },
  {
    "name": "ESPIGÃO",
    "codigoestacao": "1152001",
    "lat": -11.3933,
    "lng": -52.235,
    "altitude": "347.0",
    "bacia": "RIO AMAZONAS",
    "municipio": "SÃO FÉLIX DO ARAGUAIA",
    "ultimaAtualizacao": "2015-06-30 00:00:00.0",
    "tipoEstacao": "Pluviometrica"
  },
  {
    "name": "RANCHO DE DEUS",
    "codigoestacao": "1154000",
    "lat": -11.0028,
    "lng": -54.8053,
    "altitude": "421.0",
    "bacia": "RIO AMAZONAS",
    "municipio": "MARCELÂNDIA",
    "ultimaAtualizacao": "2015-06-30 00:00:00.0",
    "tipoEstacao": "Pluviometrica"
  },
  {
    "name": "SANTA FELICIDADE",
    "codigoestacao": "1154001",
    "lat": -11.9292,
    "lng": -54.9981,
    "altitude": "299.0",
    "bacia": "RIO AMAZONAS",
    "municipio": "SANTA CARMEM",
    "ultimaAtualizacao": "2022-03-25 00:00:00.0",
    "tipoEstacao": "Pluviometrica"
  },
  {
    "name": "FAZENDA RIO NEGRO",
    "codigoestacao": "1154002",
    "lat": -11.5242,
    "lng": -54.3589,
    "altitude": "330.0",
    "bacia": "RIO AMAZONAS",
    "municipio": "UNIÃO DO SUL",
    "ultimaAtualizacao": "2022-03-25 00:00:00.0",
    "tipoEstacao": "Pluviometrica"
  },
  {
    "name": "MARCELÂNDIA",
    "codigoestacao": "1154003",
    "lat": -11.1297,
    "lng": -54.4694,
    "altitude": "284.0",
    "bacia": "RIO AMAZONAS",
    "municipio": "MARCELÂNDIA",
    "ultimaAtualizacao": "2010-09-27 00:00:00.0",
    "tipoEstacao": "Pluviometrica"
  },
  {
    "name": "CLAÚDIA",
    "codigoestacao": "1154004",
    "lat": -11.4933,
    "lng": -54.8656,
    "altitude": "210.0",
    "bacia": "RIO AMAZONAS",
    "municipio": "CLAÚDIA",
    "ultimaAtualizacao": "2022-04-29 00:00:00.0",
    "tipoEstacao": "Pluviometrica"
  },
  {
    "name": "BARRA DO PEIXE",
    "codigoestacao": "24180000",
    "lat": -16.5575,
    "lng": -52.6706,
    "altitude": "486.0",
    "bacia": "RIO TOCANTINS",
    "municipio": "TORIXORÉU",
    "ultimaAtualizacao": "2010-11-22 00:00:00.0",
    "tipoEstacao": "Fluviometrica"
  },
  {
    "name": "PCH SÃO DOMINGOS MONTANTE 1",
    "codigoestacao": "24180050",
    "lat": -16.3056,
    "lng": -52.7097,
    "altitude": "400.0",
    "bacia": "RIO TOCANTINS",
    "municipio": "PARANATINGA",
    "ultimaAtualizacao": "2015-07-30 00:00:00.0",
    "tipoEstacao": "Fluviometrica"
  },
  {
    "name": "PCH SÃO DOMINGOS BARRAMENTO",
    "codigoestacao": "24180070",
    "lat": -16.2994,
    "lng": -52.7047,
    "altitude": "370.0",
    "bacia": "RIO TOCANTINS",
    "municipio": "RIBEIRÃOZINHO",
    "ultimaAtualizacao": "2015-07-30 00:00:00.0",
    "tipoEstacao": "Fluviometrica"
  },
  {
    "name": "PCH SÃO DOMINGOS JUSANTE",
    "codigoestacao": "24180080",
    "lat": -16.2986,
    "lng": -52.7028,
    "altitude": "363.0",
    "bacia": "RIO TOCANTINS",
    "municipio": "RIBEIRÃOZINHO",
    "ultimaAtualizacao": "2015-07-30 00:00:00.0",
    "tipoEstacao": "Fluviometrica"
  },
  {
    "name": "ESTREITO",
    "codigoestacao": "24180100",
    "lat": -16.5431,
    "lng": -52.6347,
    "altitude": "400.0",
    "bacia": "RIO TOCANTINS",
    "municipio": "PONTE BRANCA",
    "ultimaAtualizacao": "2010-11-23 00:00:00.0",
    "tipoEstacao": "Fluviometrica"
  },
  {
    "name": "BICO DE PEDRA",
    "codigoestacao": "24180200",
    "lat": -16.5611,
    "lng": -52.6483,
    "altitude": "404.0",
    "bacia": "RIO TOCANTINS",
    "municipio": "PONTE BRANCA",
    "ultimaAtualizacao": "2010-11-23 00:00:00.0",
    "tipoEstacao": "Fluviometrica"
  },
  {
    "name": "PCH ALTO ARAGUAIA MONTANTE 1",
    "codigoestacao": "24051000",
    "lat": -17.3011,
    "lng": -53.2172,
    "altitude": "655.0",
    "bacia": "RIO TOCANTINS",
    "municipio": "ALTO ARAGUAIA",
    "ultimaAtualizacao": "2016-04-07 00:00:00.0",
    "tipoEstacao": "Fluviometrica"
  },
  {
    "name": "PCH ALTO ARAGUAIA JUSANTE",
    "codigoestacao": "24055000",
    "lat": -17.2967,
    "lng": -53.2172,
    "altitude": "647.0",
    "bacia": "RIO TOCANTINS",
    "municipio": "ALTO ARAGUAIA",
    "ultimaAtualizacao": "2016-04-06 00:00:00.0",
    "tipoEstacao": "Fluviometrica"
  },
  {
    "name": "CACHOEIRA GRANDE",
    "codigoestacao": "24100000",
    "lat": -17.1611,
    "lng": -53.1386,
    "altitude": "N/A",
    "bacia": "RIO TOCANTINS",
    "municipio": "ALTO ARAGUAIA",
    "ultimaAtualizacao": "2020-04-06 00:00:00.0",
    "tipoEstacao": "Fluviometrica"
  },
  {
    "name": "ARAGUAINHA",
    "codigoestacao": "24150000",
    "lat": -16.8569,
    "lng": -53.0378,
    "altitude": "488.0",
    "bacia": "RIO TOCANTINS",
    "municipio": "ALTO ARAGUAIA",
    "ultimaAtualizacao": "2010-11-22 00:00:00.0",
    "tipoEstacao": "Fluviometrica"
  },
  {
    "name": "AREIA BRANCA",
    "codigoestacao": "24178000",
    "lat": -16.5853,
    "lng": -52.6775,
    "altitude": "408.0",
    "bacia": "RIO TOCANTINS",
    "municipio": "TORIXORÉU",
    "ultimaAtualizacao": "2010-11-22 00:00:00.0",
    "tipoEstacao": "Fluviometrica"
  },
  {
    "name": "PCH SÃO DOMINGOS MONTANTE 2",
    "codigoestacao": "24179090",
    "lat": -16.3375,
    "lng": -52.745,
    "altitude": "467.0",
    "bacia": "RIO TOCANTINS",
    "municipio": "RIBEIRÃOZINHO",
    "ultimaAtualizacao": "2015-07-30 00:00:00.0",
    "tipoEstacao": "Fluviometrica"
  },
  {
    "name": "PCH ALTO ARAGUAIA JUSANTE",
    "codigoestacao": "1753007",
    "lat": -17.2967,
    "lng": -53.2172,
    "altitude": "647.0",
    "bacia": "RIO TOCANTINS",
    "municipio": "ALTO ARAGUAIA",
    "ultimaAtualizacao": "2015-04-09 00:00:00.0",
    "tipoEstacao": "Pluviometrica"
  },
  {
    "name": "FAZENDA TAQUARI",
    "codigoestacao": "1853000",
    "lat": -17.8111,
    "lng": -53.2889,
    "altitude": "845.0",
    "bacia": "RIO TOCANTINS",
    "municipio": "ALTO TAQUARI",
    "ultimaAtualizacao": "2023-07-05 00:00:00.0",
    "tipoEstacao": "Pluviometrica"
  },
  {
    "name": "PCH ALTO ARAGUAIA MONTANTE 2",
    "codigoestacao": "24035000",
    "lat": -17.3322,
    "lng": -53.205,
    "altitude": "677.0",
    "bacia": "RIO TOCANTINS",
    "municipio": "ALTO ARAGUAIA",
    "ultimaAtualizacao": "2016-04-06 00:00:00.0",
    "tipoEstacao": "Fluviometrica"
  },
  {
    "name": "RIO ARAGUAIA (Alto Araguaia)",
    "codigoestacao": "24049000",
    "lat": -17.3019,
    "lng": -53.2167,
    "altitude": "N/A",
    "bacia": "RIO TOCANTINS",
    "municipio": "ALTO ARAGUAIA",
    "ultimaAtualizacao": "2013-12-05 00:00:00.0",
    "tipoEstacao": "Fluviometrica"
  },
  {
    "name": "ALTO ARAGUAIA",
    "codigoestacao": "24050000",
    "lat": -17.3011,
    "lng": -53.2172,
    "altitude": "655.0",
    "bacia": "RIO TOCANTINS",
    "municipio": "ALTO ARAGUAIA",
    "ultimaAtualizacao": "2020-12-10 00:00:00.0",
    "tipoEstacao": "Fluviometrica"
  },
  {
    "name": "ALTO ARAGUAIA",
    "codigoestacao": "24050001",
    "lat": -17.3011,
    "lng": -53.2172,
    "altitude": "655.0",
    "bacia": "RIO TOCANTINS",
    "municipio": "ALTO ARAGUAIA",
    "ultimaAtualizacao": "2023-04-18 00:00:00.0",
    "tipoEstacao": "Fluviometrica"
  },
  {
    "name": "GUIRATINGA",
    "codigoestacao": "1653006",
    "lat": -16.3647,
    "lng": -56,
    "altitude": "750.0",
    "bacia": "RIO TOCANTINS",
    "municipio": "GUIRATINGA",
    "ultimaAtualizacao": "2005-03-29 00:00:00.0",
    "tipoEstacao": "Pluviometrica"
  },
  {
    "name": "ALTO ARAGUAIA",
    "codigoestacao": "1753000",
    "lat": -17.3,
    "lng": -53.2194,
    "altitude": "659.0",
    "bacia": "RIO TOCANTINS",
    "municipio": "ALTO ARAGUAIA",
    "ultimaAtualizacao": "2023-07-05 00:00:00.0",
    "tipoEstacao": "Pluviometrica"
  },
  {
    "name": "ALTO ARAGUAIA",
    "codigoestacao": "1753003",
    "lat": -17.3167,
    "lng": -53.2,
    "altitude": "710.0",
    "bacia": "RIO TOCANTINS",
    "municipio": "ALTO ARAGUAIA",
    "ultimaAtualizacao": "2010-11-12 00:00:00.0",
    "tipoEstacao": "Pluviometrica"
  },
  {
    "name": "FAZENDA TAQUARI (CIVAT)",
    "codigoestacao": "1753004",
    "lat": -17.8167,
    "lng": -53.2667,
    "altitude": "793.0",
    "bacia": "RIO TOCANTINS",
    "municipio": "ALTO ARAGUAIA",
    "ultimaAtualizacao": "2010-09-27 00:00:00.0",
    "tipoEstacao": "Pluviometrica"
  },
  {
    "name": "PCH ALTO ARAGUAIA MONTANTE 2",
    "codigoestacao": "1753005",
    "lat": -17.3322,
    "lng": -53.205,
    "altitude": "677.0",
    "bacia": "RIO TOCANTINS",
    "municipio": "ALTO ARAGUAIA",
    "ultimaAtualizacao": "2015-12-15 00:00:00.0",
    "tipoEstacao": "Pluviometrica"
  },
  {
    "name": "PCH ALTO ARAGUAIA MONTANTE1",
    "codigoestacao": "1753006",
    "lat": -17.3011,
    "lng": -53.2175,
    "altitude": "655.0",
    "bacia": "RIO TOCANTINS",
    "municipio": "ALTO ARAGUAIA",
    "ultimaAtualizacao": "2016-04-07 00:00:00.0",
    "tipoEstacao": "Pluviometrica"
  },
  {
    "name": "TESOURO",
    "codigoestacao": "1653000",
    "lat": -16.0767,
    "lng": -53.5511,
    "altitude": "399.0",
    "bacia": "RIO TOCANTINS",
    "municipio": "TESOURO",
    "ultimaAtualizacao": "2021-04-12 00:00:00.0",
    "tipoEstacao": "Pluviometrica"
  },
  {
    "name": "ARAGUAINHA",
    "codigoestacao": "1653001",
    "lat": -16.8,
    "lng": -53.0833,
    "altitude": "488.0",
    "bacia": "RIO TOCANTINS",
    "municipio": "ARAGUAINHA",
    "ultimaAtualizacao": "2010-09-27 00:00:00.0",
    "tipoEstacao": "Pluviometrica"
  },
  {
    "name": "GUIRATINGA",
    "codigoestacao": "1653002",
    "lat": -16.3528,
    "lng": -53.7608,
    "altitude": "485.0",
    "bacia": "RIO TOCANTINS",
    "municipio": "GUIRATINGA",
    "ultimaAtualizacao": "2019-12-03 00:00:00.0",
    "tipoEstacao": "Pluviometrica"
  },
  {
    "name": "ALTO GARÇAS (ACAMP.DNER)",
    "codigoestacao": "1653003",
    "lat": -16.9667,
    "lng": -53.5833,
    "altitude": "789.0",
    "bacia": "RIO TOCANTINS",
    "municipio": "ALTO GARÇAS",
    "ultimaAtualizacao": "2010-09-27 00:00:00.0",
    "tipoEstacao": "Pluviometrica"
  },
  {
    "name": "ALTO GARÇAS",
    "codigoestacao": "1653004",
    "lat": -16.9442,
    "lng": -53.5336,
    "altitude": "564.0",
    "bacia": "RIO TOCANTINS",
    "municipio": "ALTO GARÇAS",
    "ultimaAtualizacao": "2023-07-10 00:00:00.0",
    "tipoEstacao": "Pluviometrica"
  },
  {
    "name": "CAFELÂNDIA DO LESTE",
    "codigoestacao": "1653005",
    "lat": -16.6689,
    "lng": -53.4536,
    "altitude": "546.0",
    "bacia": "RIO TOCANTINS",
    "municipio": "ARAGUAINHA",
    "ultimaAtualizacao": "2021-04-12 00:00:00.0",
    "tipoEstacao": "Pluviometrica"
  },
  {
    "name": "PONTE BRANCA",
    "codigoestacao": "1652001",
    "lat": -16.7664,
    "lng": -52.8372,
    "altitude": "380.0",
    "bacia": "RIO TOCANTINS",
    "municipio": "PONTE BRANCA",
    "ultimaAtualizacao": "2023-07-05 00:00:00.0",
    "tipoEstacao": "Pluviometrica"
  },
  {
    "name": "TORIXOREU",
    "codigoestacao": "1652002",
    "lat": -16.2014,
    "lng": -52.55,
    "altitude": "307.0",
    "bacia": "RIO TOCANTINS",
    "municipio": "TORIXORÉU",
    "ultimaAtualizacao": "2021-06-02 00:00:00.0",
    "tipoEstacao": "Pluviometrica"
  },
  {
    "name": "PCH SÃO DOMINGOS JUSANTE",
    "codigoestacao": "1652004",
    "lat": -16.2986,
    "lng": -52.7028,
    "altitude": "363.0",
    "bacia": "RIO TOCANTINS",
    "municipio": "RIBEIRÃOZINHO",
    "ultimaAtualizacao": "2015-07-30 00:00:00.0",
    "tipoEstacao": "Pluviometrica"
  },
  {
    "name": "SÍTIO ADRIANA",
    "codigoestacao": "1652005",
    "lat": -16.1025,
    "lng": -52.4836,
    "altitude": "N/A",
    "bacia": "RIO TOCANTINS",
    "municipio": "BARRA DO GARÇAS",
    "ultimaAtualizacao": "2011-08-23 00:00:00.0",
    "tipoEstacao": "Pluviometrica"
  },
  {
    "name": "PCH SÃO DOMINGOS MONTANTE 1",
    "codigoestacao": "1652006",
    "lat": -16.3056,
    "lng": -52.7097,
    "altitude": "400.0",
    "bacia": "RIO TOCANTINS",
    "municipio": "PARANATINGA",
    "ultimaAtualizacao": "2015-07-30 00:00:00.0",
    "tipoEstacao": "Pluviometrica"
  },
  {
    "name": "PCH SÃO DOMINGOS MONTANTE 2",
    "codigoestacao": "1652007",
    "lat": -16.3375,
    "lng": -52.745,
    "altitude": "467.0",
    "bacia": "RIO TOCANTINS",
    "municipio": "RIBEIRÃOZINHO",
    "ultimaAtualizacao": "2015-07-30 00:00:00.0",
    "tipoEstacao": "Pluviometrica"
  },
  {
    "name": "GENERAL CARNEIRO",
    "codigoestacao": "1552001",
    "lat": -15.7111,
    "lng": -52.7544,
    "altitude": "366.0",
    "bacia": "RIO TOCANTINS",
    "municipio": "GENERAL CARNEIRO",
    "ultimaAtualizacao": "2018-09-12 00:00:00.0",
    "tipoEstacao": "Pluviometrica"
  },
  {
    "name": "PINDAÍBA",
    "codigoestacao": "1552006",
    "lat": -15.0356,
    "lng": -52.2375,
    "altitude": "291.0",
    "bacia": "RIO TOCANTINS",
    "municipio": "BARRA DO GARÇAS",
    "ultimaAtualizacao": "2019-12-03 00:00:00.0",
    "tipoEstacao": "Pluviometrica"
  },
  {
    "name": "CÓRREGO FUNDO (EMASA)",
    "codigoestacao": "1552008",
    "lat": -15.9008,
    "lng": -52.2767,
    "altitude": "N/A",
    "bacia": "RIO TOCANTINS",
    "municipio": "BARRA DO GARÇAS",
    "ultimaAtualizacao": "2013-04-01 00:00:00.0",
    "tipoEstacao": "Pluviometrica"
  },
  {
    "name": "BARRA DO GARÇAS_Secretaria Municipal de Cultura",
    "codigoestacao": "1552010",
    "lat": -15.8914,
    "lng": -52.2547,
    "altitude": "292.0",
    "bacia": "RIO TOCANTINS",
    "municipio": "BARRA DO GARÇAS",
    "ultimaAtualizacao": "2015-11-04 00:00:00.0",
    "tipoEstacao": "Pluviometrica"
  },
  {
    "name": "BATOVI",
    "codigoestacao": "1553000",
    "lat": -15.8667,
    "lng": -53.3833,
    "altitude": "425.0",
    "bacia": "RIO TOCANTINS",
    "municipio": "TESOURO",
    "ultimaAtualizacao": "2010-09-27 00:00:00.0",
    "tipoEstacao": "Pluviometrica"
  },
  {
    "name": "COLÔNIA MERURE",
    "codigoestacao": "1553002",
    "lat": -15.5333,
    "lng": -53.0833,
    "altitude": "418.0",
    "bacia": "RIO TOCANTINS",
    "municipio": "DIAMANTINO",
    "ultimaAtualizacao": "2011-02-11 00:00:00.0",
    "tipoEstacao": "Pluviometrica"
  },
  {
    "name": "BARRA DO GARÇAS",
    "codigoestacao": "24654000",
    "lat": -15.8947,
    "lng": -52.2569,
    "altitude": "290.0",
    "bacia": "RIO TOCANTINS",
    "municipio": "BARRA DO GARÇAS",
    "ultimaAtualizacao": "2017-01-25 00:00:00.0",
    "tipoEstacao": "Fluviometrica"
  },
  {
    "name": "SÍTIO ADRIANA",
    "codigoestacao": "24710000",
    "lat": -16.1025,
    "lng": -52.4836,
    "altitude": "N/A",
    "bacia": "RIO TOCANTINS",
    "municipio": "BARRA DO GARÇAS",
    "ultimaAtualizacao": "2018-09-17 00:00:00.0",
    "tipoEstacao": "Fluviometrica"
  },
  {
    "name": "BARRA DO CAIAPÓ",
    "codigoestacao": "24848080",
    "lat": -15.75,
    "lng": -51.85,
    "altitude": "N/A",
    "bacia": "RIO TOCANTINS",
    "municipio": "BARRA DO GARÇAS",
    "ultimaAtualizacao": "2010-11-22 00:00:00.0",
    "tipoEstacao": "Fluviometrica"
  },
  {
    "name": "ARAGUAIANA",
    "codigoestacao": "24850000",
    "lat": -15.7381,
    "lng": -51.8281,
    "altitude": "278.0",
    "bacia": "RIO TOCANTINS",
    "municipio": "ARAGUAIANA",
    "ultimaAtualizacao": "2024-05-09 00:00:00.0",
    "tipoEstacao": "Fluviometrica"
  },
  {
    "name": "ARAGUAIANA",
    "codigoestacao": "24850001",
    "lat": -15.7381,
    "lng": -51.8281,
    "altitude": "278.0",
    "bacia": "RIO TOCANTINS",
    "municipio": "ARAGUAIANA",
    "ultimaAtualizacao": "2017-01-25 00:00:00.0",
    "tipoEstacao": "Fluviometrica"
  },
  {
    "name": "ARAGUAIANA",
    "codigoestacao": "1551005",
    "lat": -15.7381,
    "lng": -51.8281,
    "altitude": "278.0",
    "bacia": "RIO TOCANTINS",
    "municipio": "ARAGUAIANA",
    "ultimaAtualizacao": "2020-06-09 00:00:00.0",
    "tipoEstacao": "Pluviometrica"
  },
  {
    "name": "GENERAL CARNEIRO",
    "codigoestacao": "24649000",
    "lat": -15.7269,
    "lng": -52.7567,
    "altitude": "320.0",
    "bacia": "RIO TOCANTINS",
    "municipio": "GENERAL CARNEIRO",
    "ultimaAtualizacao": "2017-03-10 00:00:00.0",
    "tipoEstacao": "Fluviometrica"
  },
  {
    "name": "GENERAL CARNEIRO",
    "codigoestacao": "24650000",
    "lat": -15.7111,
    "lng": -52.7544,
    "altitude": "339.0",
    "bacia": "RIO TOCANTINS",
    "municipio": "GENERAL CARNEIRO",
    "ultimaAtualizacao": "2010-12-21 00:00:00.0",
    "tipoEstacao": "Fluviometrica"
  },
  {
    "name": "BARRA DO GARÇAS",
    "codigoestacao": "24651000",
    "lat": -15.8775,
    "lng": -52.3736,
    "altitude": "300.0",
    "bacia": "RIO TOCANTINS",
    "municipio": "BARRA DO GARÇAS",
    "ultimaAtualizacao": "2017-01-25 00:00:00.0",
    "tipoEstacao": "Fluviometrica"
  },
  {
    "name": "MONTANTE BARRA DO GARÇAS",
    "codigoestacao": "24652000",
    "lat": -15.8853,
    "lng": -52.3758,
    "altitude": "300.0",
    "bacia": "RIO TOCANTINS",
    "municipio": "BARRA DO GARÇAS",
    "ultimaAtualizacao": "2015-01-21 00:00:00.0",
    "tipoEstacao": "Fluviometrica"
  },
  {
    "name": "CÓRREGO FUNDO (EMASA)",
    "codigoestacao": "24653000",
    "lat": -15.8994,
    "lng": -52.2764,
    "altitude": "294.0",
    "bacia": "RIO TOCANTINS",
    "municipio": "BARRA DO GARÇAS",
    "ultimaAtualizacao": "2013-04-01 00:00:00.0",
    "tipoEstacao": "Fluviometrica"
  },
  {
    "name": "EMASA",
    "codigoestacao": "24653500",
    "lat": -15.9008,
    "lng": -52.2767,
    "altitude": "N/A",
    "bacia": "RIO TOCANTINS",
    "municipio": "BARRA DO GARÇAS",
    "ultimaAtualizacao": "2018-10-05 00:00:00.0",
    "tipoEstacao": "Fluviometrica"
  },
  {
    "name": "TESOURO",
    "codigoestacao": "24500000",
    "lat": -16.0778,
    "lng": -53.5481,
    "altitude": "391.0",
    "bacia": "RIO TOCANTINS",
    "municipio": "TESOURO",
    "ultimaAtualizacao": "2024-05-09 00:00:00.0",
    "tipoEstacao": "Fluviometrica"
  },
  {
    "name": "BATOVI",
    "codigoestacao": "24510000",
    "lat": -15.8694,
    "lng": -53.5139,
    "altitude": "420.0",
    "bacia": "RIO TOCANTINS",
    "municipio": "TESOURO",
    "ultimaAtualizacao": "2010-11-22 00:00:00.0",
    "tipoEstacao": "Fluviometrica"
  },
  {
    "name": "BIOMBO",
    "codigoestacao": "24511000",
    "lat": -15.9392,
    "lng": -53.335,
    "altitude": "360.0",
    "bacia": "RIO TOCANTINS",
    "municipio": "TESOURO",
    "ultimaAtualizacao": "2010-11-22 00:00:00.0",
    "tipoEstacao": "Fluviometrica"
  },
  {
    "name": "PCH ESPERANÇA JUSANTE",
    "codigoestacao": "24511500",
    "lat": -15.7925,
    "lng": -53.1692,
    "altitude": "337.78",
    "bacia": "RIO TOCANTINS",
    "municipio": "TESOURO",
    "ultimaAtualizacao": "2017-11-13 00:00:00.0",
    "tipoEstacao": "Fluviometrica"
  },
  {
    "name": "MORRO DE MESA",
    "codigoestacao": "24512000",
    "lat": -15.7586,
    "lng": -53.1369,
    "altitude": "340.0",
    "bacia": "RIO TOCANTINS",
    "municipio": "TESOURO",
    "ultimaAtualizacao": "2010-11-22 00:00:00.0",
    "tipoEstacao": "Fluviometrica"
  },
  {
    "name": "BATOVI",
    "codigoestacao": "24600000",
    "lat": -15.8694,
    "lng": -53.5139,
    "altitude": "425.0",
    "bacia": "RIO TOCANTINS",
    "municipio": "TESOURO",
    "ultimaAtualizacao": "2010-11-22 00:00:00.0",
    "tipoEstacao": "Fluviometrica"
  },
  {
    "name": "TESOURO",
    "codigoestacao": "24449200",
    "lat": -16.1928,
    "lng": -53.6747,
    "altitude": "440.0",
    "bacia": "RIO TOCANTINS",
    "municipio": "TESOURO",
    "ultimaAtualizacao": "2017-01-25 00:00:00.0",
    "tipoEstacao": "Fluviometrica"
  },
  {
    "name": "ALCANTILADO",
    "codigoestacao": "24450000",
    "lat": -16.4142,
    "lng": -53.5269,
    "altitude": "535.0",
    "bacia": "RIO TOCANTINS",
    "municipio": "GUIRATINGA",
    "ultimaAtualizacao": "2016-05-09 00:00:00.0",
    "tipoEstacao": "Fluviometrica"
  },
  {
    "name": "PCH CHICO FRANCA JUSANTE",
    "codigoestacao": "24450500",
    "lat": -16.3258,
    "lng": -53.5736,
    "altitude": "416.29",
    "bacia": "RIO TOCANTINS",
    "municipio": "GUIRATINGA",
    "ultimaAtualizacao": "2017-11-13 00:00:00.0",
    "tipoEstacao": "Fluviometrica"
  },
  {
    "name": "GUIRATINGA",
    "codigoestacao": "24451000",
    "lat": -16.2206,
    "lng": -53.6011,
    "altitude": "420.0",
    "bacia": "RIO TOCANTINS",
    "municipio": "GUIRATINGA",
    "ultimaAtualizacao": "2017-01-25 00:00:00.0",
    "tipoEstacao": "Fluviometrica"
  },
  {
    "name": "TESOURO",
    "codigoestacao": "24452000",
    "lat": -16.0775,
    "lng": -53.5483,
    "altitude": "388.0",
    "bacia": "RIO TOCANTINS",
    "municipio": "TESOURO",
    "ultimaAtualizacao": "2017-01-25 00:00:00.0",
    "tipoEstacao": "Fluviometrica"
  },
  {
    "name": "CASSUNUNGA",
    "codigoestacao": "24453000",
    "lat": -16.075,
    "lng": -53.5522,
    "altitude": "395.0",
    "bacia": "RIO TOCANTINS",
    "municipio": "TESOURO",
    "ultimaAtualizacao": "2010-11-22 00:00:00.0",
    "tipoEstacao": "Fluviometrica"
  },
  {
    "name": "PONTE DE BAIXO",
    "codigoestacao": "24441200",
    "lat": -16.6169,
    "lng": -53.4164,
    "altitude": "500.0",
    "bacia": "RIO TOCANTINS",
    "municipio": "TESOURO",
    "ultimaAtualizacao": "2010-11-22 00:00:00.0",
    "tipoEstacao": "Fluviometrica"
  },
  {
    "name": "RIBEIRÃO DA ONÇA",
    "codigoestacao": "24441300",
    "lat": -16.6747,
    "lng": -53.4686,
    "altitude": "532.0",
    "bacia": "RIO TOCANTINS",
    "municipio": "TESOURO",
    "ultimaAtualizacao": "2010-11-22 00:00:00.0",
    "tipoEstacao": "Fluviometrica"
  },
  {
    "name": "RIBEIRÃO ÁGUA SUJA",
    "codigoestacao": "24441400",
    "lat": -16.4083,
    "lng": -53.5475,
    "altitude": "440.0",
    "bacia": "RIO TOCANTINS",
    "municipio": "TESOURO",
    "ultimaAtualizacao": "2010-11-22 00:00:00.0",
    "tipoEstacao": "Fluviometrica"
  },
  {
    "name": "ALTO GARÇAS JUSANTE",
    "codigoestacao": "24442000",
    "lat": -16.6169,
    "lng": -53.4164,
    "altitude": "474.61",
    "bacia": "RIO TOCANTINS",
    "municipio": "ALTO GARÇAS",
    "ultimaAtualizacao": "2016-07-20 00:00:00.0",
    "tipoEstacao": "Fluviometrica"
  },
  {
    "name": "PONTE MT 270 RIO DAS GARÇAS",
    "codigoestacao": "24449000",
    "lat": -16.4217,
    "lng": -53.5236,
    "altitude": "450.0",
    "bacia": "RIO TOCANTINS",
    "municipio": "GUIRATINGA",
    "ultimaAtualizacao": "2018-09-17 00:00:00.0",
    "tipoEstacao": "Fluviometrica"
  },
  {
    "name": "PONTE MT 110 RIO BANDEIRA",
    "codigoestacao": "24449100",
    "lat": -16.345,
    "lng": -53.7081,
    "altitude": "430.0",
    "bacia": "RIO TOCANTINS",
    "municipio": "GUIRATINGA",
    "ultimaAtualizacao": "2018-09-17 00:00:00.0",
    "tipoEstacao": "Fluviometrica"
  },
  {
    "name": "PEDRA DA COBRA",
    "codigoestacao": "24180300",
    "lat": -16.6,
    "lng": -52.6333,
    "altitude": "431.0",
    "bacia": "RIO TOCANTINS",
    "municipio": "PONTE BRANCA",
    "ultimaAtualizacao": "2010-11-23 00:00:00.0",
    "tipoEstacao": "Fluviometrica"
  },
  {
    "name": "PAU BRANCO",
    "codigoestacao": "24180400",
    "lat": -16.5,
    "lng": -52.6167,
    "altitude": "417.0",
    "bacia": "RIO TOCANTINS",
    "municipio": "PONTE BRANCA",
    "ultimaAtualizacao": "2010-11-22 00:00:00.0",
    "tipoEstacao": "Fluviometrica"
  },
  {
    "name": "TORIXOREU",
    "codigoestacao": "24200000",
    "lat": -16.2006,
    "lng": -52.5497,
    "altitude": "314.0",
    "bacia": "RIO TOCANTINS",
    "municipio": "TORIXORÉU",
    "ultimaAtualizacao": "2021-06-02 00:00:00.0",
    "tipoEstacao": "Fluviometrica"
  },
  {
    "name": "PCH ALTO GARÇAS",
    "codigoestacao": "24440000",
    "lat": -16.7208,
    "lng": -53.6064,
    "altitude": "N/A",
    "bacia": "RIO TOCANTINS",
    "municipio": "ALTO GARÇAS",
    "ultimaAtualizacao": "2013-03-19 00:00:00.0",
    "tipoEstacao": "Fluviometrica"
  },
  {
    "name": "ALTO GARÇAS",
    "codigoestacao": "24441000",
    "lat": -16.8658,
    "lng": -53.3994,
    "altitude": "560.0",
    "bacia": "RIO TOCANTINS",
    "municipio": "ALTO GARÇAS",
    "ultimaAtualizacao": "2017-03-10 00:00:00.0",
    "tipoEstacao": "Fluviometrica"
  },
  {
    "name": "PONTE DO MEIO",
    "codigoestacao": "24441100",
    "lat": -16.7361,
    "lng": -53.4019,
    "altitude": "520.0",
    "bacia": "RIO TOCANTINS",
    "municipio": "TESOURO",
    "ultimaAtualizacao": "2010-11-22 00:00:00.0",
    "tipoEstacao": "Fluviometrica"
  },
  {
    "name": "HIDRECON I",
    "codigoestacao": "17090100",
    "lat": -13.6511,
    "lng": -59.8875,
    "altitude": "N/A",
    "bacia": "RIO AMAZONAS",
    "municipio": "COMODORO",
    "ultimaAtualizacao": "2013-03-25 00:00:00.0",
    "tipoEstacao": "Fluviometrica"
  },
  {
    "name": "CONQUISTA DO OESTE",
    "codigoestacao": "17090300",
    "lat": -14.5425,
    "lng": -59.2319,
    "altitude": "167.0",
    "bacia": "RIO AMAZONAS",
    "municipio": "CONQUISTA D'OESTE",
    "ultimaAtualizacao": "2017-01-25 00:00:00.0",
    "tipoEstacao": "Fluviometrica"
  },
  {
    "name": "PCH SANTA LÚCIA I E II MONTANTE 2",
    "codigoestacao": "17090400",
    "lat": -13.5956,
    "lng": -59.0325,
    "altitude": "490.0",
    "bacia": "RIO AMAZONAS",
    "municipio": "CAMPOS DE JÚLIO",
    "ultimaAtualizacao": "2024-03-22 00:00:00.0",
    "tipoEstacao": "Fluviometrica"
  },
  {
    "name": "PCH SANTA LÚCIA I E II MONTANTE 1",
    "codigoestacao": "17090500",
    "lat": -13.5567,
    "lng": -59.0283,
    "altitude": "479.0",
    "bacia": "RIO AMAZONAS",
    "municipio": "SAPEZAL",
    "ultimaAtualizacao": "2024-03-22 00:00:00.0",
    "tipoEstacao": "Fluviometrica"
  },
  {
    "name": "CAMPOS DE JÚLIO",
    "codigoestacao": "17090550",
    "lat": -13.5514,
    "lng": -59.035,
    "altitude": "210.0",
    "bacia": "RIO AMAZONAS",
    "municipio": "CAMPOS DE JÚLIO",
    "ultimaAtualizacao": "2018-09-17 00:00:00.0",
    "tipoEstacao": "Fluviometrica"
  },
  {
    "name": "PCH SANTA LÚCIA I E II BARRAMENTO",
    "codigoestacao": "17090580",
    "lat": -13.5436,
    "lng": -59.0303,
    "altitude": "477.0",
    "bacia": "RIO AMAZONAS",
    "municipio": "SAPEZAL",
    "ultimaAtualizacao": "2024-03-22 00:00:00.0",
    "tipoEstacao": "Fluviometrica"
  },
  {
    "name": "UHE SÃO MANOEL JUSANTE 1",
    "codigoestacao": "9570000",
    "lat": -9.1653,
    "lng": -57.0608,
    "altitude": "151.0",
    "bacia": "RIO AMAZONAS",
    "municipio": "APIACÁS",
    "ultimaAtualizacao": "2017-01-03 00:00:00.0",
    "tipoEstacao": "Pluviometrica"
  },
  {
    "name": "UHE SÃO MANOEL RIO APUICÁS",
    "codigoestacao": "9570001",
    "lat": -9.1922,
    "lng": -57.0686,
    "altitude": "153.0",
    "bacia": "RIO AMAZONAS",
    "municipio": "APIACÁS",
    "ultimaAtualizacao": "2017-01-03 00:00:00.0",
    "tipoEstacao": "Pluviometrica"
  },
  {
    "name": "UHE SÃO MANOEL JUSANTE 2",
    "codigoestacao": "17410100",
    "lat": -8.8594,
    "lng": -57.4192,
    "altitude": "137.0",
    "bacia": "RIO AMAZONAS",
    "municipio": "APIACÁS",
    "ultimaAtualizacao": "2017-01-03 00:00:00.0",
    "tipoEstacao": "Fluviometrica"
  },
  {
    "name": "UHE TELES PIRES RIO TELES PIRES JUSANTE 2",
    "codigoestacao": "17410200",
    "lat": -8.8594,
    "lng": -57.4192,
    "altitude": "N/A",
    "bacia": "RIO AMAZONAS",
    "municipio": "APIACÁS",
    "ultimaAtualizacao": "2020-09-30 00:00:00.0",
    "tipoEstacao": "Fluviometrica"
  },
  {
    "name": "TRÊS MARIAS",
    "codigoestacao": "17420000",
    "lat": -7.6147,
    "lng": -57.9503,
    "altitude": "129.0",
    "bacia": "RIO AMAZONAS",
    "municipio": "ARIPUANÃ",
    "ultimaAtualizacao": "2024-02-09 00:00:00.0",
    "tipoEstacao": "Fluviometrica"
  },
  {
    "name": "UHE SÃO MANOEL JUSANTE 2",
    "codigoestacao": "8570000",
    "lat": -8.8594,
    "lng": -57.4192,
    "altitude": "137.0",
    "bacia": "RIO AMAZONAS",
    "municipio": "APIACÁS",
    "ultimaAtualizacao": "2017-01-03 00:00:00.0",
    "tipoEstacao": "Pluviometrica"
  },
  {
    "name": "PCH BRAÇO NORTE MONTANTE",
    "codigoestacao": "9540000",
    "lat": -9.7992,
    "lng": -54.9867,
    "altitude": "280.0",
    "bacia": "RIO AMAZONAS",
    "municipio": "NOVO MUNDO",
    "ultimaAtualizacao": "2015-07-22 00:00:00.0",
    "tipoEstacao": "Pluviometrica"
  },
  {
    "name": "PCH BRAÇO NORTE RIO BRAÇO SUL",
    "codigoestacao": "9540001",
    "lat": -9.8219,
    "lng": -54.9839,
    "altitude": "279.0",
    "bacia": "RIO AMAZONAS",
    "municipio": "GUARANTÃ DO NORTE",
    "ultimaAtualizacao": "2015-07-22 00:00:00.0",
    "tipoEstacao": "Pluviometrica"
  },
  {
    "name": "UHE SALTO APIACÁS BARRAMENTO",
    "codigoestacao": "17393500",
    "lat": -10.3394,
    "lng": -56.9822,
    "altitude": "247.0",
    "bacia": "RIO AMAZONAS",
    "municipio": "ALTA FLORESTA",
    "ultimaAtualizacao": "2017-11-21 00:00:00.0",
    "tipoEstacao": "Fluviometrica"
  },
  {
    "name": "PCH DA FAZENDA BARRAMENTO",
    "codigoestacao": "17394000",
    "lat": -10.3303,
    "lng": -56.9828,
    "altitude": "221.0",
    "bacia": "RIO AMAZONAS",
    "municipio": "ALTA FLORESTA",
    "ultimaAtualizacao": "2016-12-22 00:00:00.0",
    "tipoEstacao": "Fluviometrica"
  },
  {
    "name": "PCH DA FAZENDA JUSANTE",
    "codigoestacao": "17395000",
    "lat": -10.3264,
    "lng": -56.9839,
    "altitude": "217.0",
    "bacia": "RIO AMAZONAS",
    "municipio": "NOVA MONTE VERDE",
    "ultimaAtualizacao": "2022-12-15 00:00:00.0",
    "tipoEstacao": "Fluviometrica"
  },
  {
    "name": "UHE TELES PIRES RIO APIACÁS",
    "codigoestacao": "17395800",
    "lat": -9.1922,
    "lng": -57.0686,
    "altitude": "N/A",
    "bacia": "RIO AMAZONAS",
    "municipio": "APIACÁS",
    "ultimaAtualizacao": "2020-09-30 00:00:00.0",
    "tipoEstacao": "Fluviometrica"
  },
  {
    "name": "UHE SÃO MANOEL RIO APIACÁS",
    "codigoestacao": "17395900",
    "lat": -9.1922,
    "lng": -57.0686,
    "altitude": "153.0",
    "bacia": "RIO AMAZONAS",
    "municipio": "APIACÁS",
    "ultimaAtualizacao": "2017-01-03 00:00:00.0",
    "tipoEstacao": "Fluviometrica"
  },
  {
    "name": "SANTA ROSA",
    "codigoestacao": "17410000",
    "lat": -8.8578,
    "lng": -57.4019,
    "altitude": "212.0",
    "bacia": "RIO AMAZONAS",
    "municipio": "ALTA FLORESTA",
    "ultimaAtualizacao": "2023-09-18 00:00:00.0",
    "tipoEstacao": "Fluviometrica"
  },
  {
    "name": "PCH CABEÇA DE BOI RIO TAPAIUNA",
    "codigoestacao": "17388000",
    "lat": -10.5231,
    "lng": -56.9742,
    "altitude": "287.0",
    "bacia": "RIO AMAZONAS",
    "municipio": "JUARA",
    "ultimaAtualizacao": "2015-04-27 00:00:00.0",
    "tipoEstacao": "Fluviometrica"
  },
  {
    "name": "PCH CABEÇA DE BOI RIO CABEÇA DE BOI",
    "codigoestacao": "17389000",
    "lat": -10.4361,
    "lng": -57.2683,
    "altitude": "302.0",
    "bacia": "RIO AMAZONAS",
    "municipio": "JUARA",
    "ultimaAtualizacao": "2015-06-15 00:00:00.0",
    "tipoEstacao": "Fluviometrica"
  },
  {
    "name": "PCH CABEÇA DE BOI BARRAMENTO",
    "codigoestacao": "17389500",
    "lat": -10.3553,
    "lng": -56.9811,
    "altitude": "271.0",
    "bacia": "RIO AMAZONAS",
    "municipio": "ALTA FLORESTA",
    "ultimaAtualizacao": "2017-11-21 00:00:00.0",
    "tipoEstacao": "Fluviometrica"
  },
  {
    "name": "APIACAS",
    "codigoestacao": "17390000",
    "lat": -10.35,
    "lng": -56.9667,
    "altitude": "397.0",
    "bacia": "RIO AMAZONAS",
    "municipio": "ARIPUANÃ",
    "ultimaAtualizacao": "2015-04-06 00:00:00.0",
    "tipoEstacao": "Fluviometrica"
  },
  {
    "name": "UHE SÃO MANOEL JUSANTE 1",
    "codigoestacao": "17390100",
    "lat": -9.1653,
    "lng": -57.0608,
    "altitude": "151.0",
    "bacia": "RIO AMAZONAS",
    "municipio": "APIACÁS",
    "ultimaAtualizacao": "2017-01-03 00:00:00.0",
    "tipoEstacao": "Fluviometrica"
  },
  {
    "name": "UHE SALTO APIACÁS RIO PIAU",
    "codigoestacao": "17393000",
    "lat": -10.3444,
    "lng": -57.2511,
    "altitude": "N/A",
    "bacia": "RIO AMAZONAS",
    "municipio": "NOVA MONTE VERDE",
    "ultimaAtualizacao": "2015-07-13 00:00:00.0",
    "tipoEstacao": "Fluviometrica"
  },
  {
    "name": "UHE TELES PIRES RESERVATÓRIO 3",
    "codigoestacao": "17383800",
    "lat": -9.3611,
    "lng": -56.7889,
    "altitude": "220.0",
    "bacia": "RIO AMAZONAS",
    "municipio": "PARANAITA",
    "ultimaAtualizacao": "2020-09-30 00:00:00.0",
    "tipoEstacao": "Fluviometrica"
  },
  {
    "name": "UHE TELES PIRES RESERVATÓRIO 2",
    "codigoestacao": "17383900",
    "lat": -9.3558,
    "lng": -56.7789,
    "altitude": "220.0",
    "bacia": "RIO AMAZONAS",
    "municipio": "PARANAITA",
    "ultimaAtualizacao": "2020-09-30 00:00:00.0",
    "tipoEstacao": "Fluviometrica"
  },
  {
    "name": "UHE TELES PIRES BARRAMENTO",
    "codigoestacao": "17384000",
    "lat": -9.3506,
    "lng": -56.7806,
    "altitude": "224.0",
    "bacia": "RIO AMAZONAS",
    "municipio": "PARANAITA",
    "ultimaAtualizacao": "2021-06-21 00:00:00.0",
    "tipoEstacao": "Fluviometrica"
  },
  {
    "name": "UHE TELES PIRES RESERVATÓRIO 1",
    "codigoestacao": "17384300",
    "lat": -9.3306,
    "lng": -56.7769,
    "altitude": "164.0",
    "bacia": "RIO AMAZONAS",
    "municipio": "PARANAITA",
    "ultimaAtualizacao": "2020-09-30 00:00:00.0",
    "tipoEstacao": "Fluviometrica"
  },
  {
    "name": "PCH CABEÇA DE BOI MONTANTE 2",
    "codigoestacao": "17385000",
    "lat": -10.6389,
    "lng": -56.5181,
    "altitude": "290.0",
    "bacia": "RIO AMAZONAS",
    "municipio": "TABAPORÃ",
    "ultimaAtualizacao": "2017-11-21 00:00:00.0",
    "tipoEstacao": "Fluviometrica"
  },
  {
    "name": "PCH CABEÇA DE BOI MONTANTE 1",
    "codigoestacao": "17387000",
    "lat": -10.3711,
    "lng": -56.8881,
    "altitude": "287.0",
    "bacia": "RIO AMAZONAS",
    "municipio": "JUARA",
    "ultimaAtualizacao": "2017-11-21 00:00:00.0",
    "tipoEstacao": "Fluviometrica"
  },
  {
    "name": "UHE TELES PIRES RESERVATÓRIO 8",
    "codigoestacao": "17383450",
    "lat": -9.4181,
    "lng": -56.7517,
    "altitude": "220.0",
    "bacia": "RIO AMAZONAS",
    "municipio": "PARANAITA",
    "ultimaAtualizacao": "2020-09-30 00:00:00.0",
    "tipoEstacao": "Fluviometrica"
  },
  {
    "name": "UHE TELES PIRES RESERVATÓRIO",
    "codigoestacao": "17383500",
    "lat": -9.4067,
    "lng": -56.7592,
    "altitude": "205.0",
    "bacia": "RIO AMAZONAS",
    "municipio": "PARANAITA",
    "ultimaAtualizacao": "2020-09-30 00:00:00.0",
    "tipoEstacao": "Fluviometrica"
  },
  {
    "name": "UHE TELES PIRES RESERVATÓRIO 7",
    "codigoestacao": "17383600",
    "lat": -9.3889,
    "lng": -56.7911,
    "altitude": "220.0",
    "bacia": "RIO AMAZONAS",
    "municipio": "PARANAITA",
    "ultimaAtualizacao": "2020-09-30 00:00:00.0",
    "tipoEstacao": "Fluviometrica"
  },
  {
    "name": "UHE TELES PIRES RESERVATÓRIO 6",
    "codigoestacao": "17383650",
    "lat": -9.3844,
    "lng": -56.7714,
    "altitude": "220.0",
    "bacia": "RIO AMAZONAS",
    "municipio": "PARANAITA",
    "ultimaAtualizacao": "2020-09-30 00:00:00.0",
    "tipoEstacao": "Fluviometrica"
  },
  {
    "name": "UHE TELES PIRES RESERVATÓRIO 5",
    "codigoestacao": "17383700",
    "lat": -9.3739,
    "lng": -56.7789,
    "altitude": "220.0",
    "bacia": "RIO AMAZONAS",
    "municipio": "PARANAITA",
    "ultimaAtualizacao": "2020-09-30 00:00:00.0",
    "tipoEstacao": "Fluviometrica"
  },
  {
    "name": "UHE TELES PIRES RESERVATÓRIO 4",
    "codigoestacao": "17383750",
    "lat": -9.3692,
    "lng": -56.7769,
    "altitude": "220.0",
    "bacia": "RIO AMAZONAS",
    "municipio": "PARANAITA",
    "ultimaAtualizacao": "2020-09-30 00:00:00.0",
    "tipoEstacao": "Fluviometrica"
  },
  {
    "name": "UHE TELES PIRES RESERVATÓRIO 12",
    "codigoestacao": "17382160",
    "lat": -9.3753,
    "lng": -56.7119,
    "altitude": "220.0",
    "bacia": "RIO AMAZONAS",
    "municipio": "PARANAITA",
    "ultimaAtualizacao": "2020-09-30 00:00:00.0",
    "tipoEstacao": "Fluviometrica"
  },
  {
    "name": "UHE TELES PIRES RIO PARANAITA DESATIVADA",
    "codigoestacao": "17383000",
    "lat": -9.7728,
    "lng": -56.6444,
    "altitude": "240.0",
    "bacia": "RIO AMAZONAS",
    "municipio": "PARANAITA",
    "ultimaAtualizacao": "2021-06-22 00:00:00.0",
    "tipoEstacao": "Fluviometrica"
  },
  {
    "name": "UHE TELES PIRES RESERVATÓRIO 19",
    "codigoestacao": "17383100",
    "lat": -9.7108,
    "lng": -56.6283,
    "altitude": "220.0",
    "bacia": "RIO AMAZONAS",
    "municipio": "PARANAITA",
    "ultimaAtualizacao": "2020-09-30 00:00:00.0",
    "tipoEstacao": "Fluviometrica"
  },
  {
    "name": "UHE TELES PIRES RESERVATÓRIO 11",
    "codigoestacao": "17383300",
    "lat": -9.6097,
    "lng": -56.6483,
    "altitude": "220.0",
    "bacia": "RIO AMAZONAS",
    "municipio": "PARANAITA",
    "ultimaAtualizacao": "2020-09-30 00:00:00.0",
    "tipoEstacao": "Fluviometrica"
  },
  {
    "name": "UHE TELES PIRES RESERVATÓRIO 10",
    "codigoestacao": "17383350",
    "lat": -9.4936,
    "lng": -56.7044,
    "altitude": "220.0",
    "bacia": "RIO AMAZONAS",
    "municipio": "PARANAITA",
    "ultimaAtualizacao": "2020-09-30 00:00:00.0",
    "tipoEstacao": "Fluviometrica"
  },
  {
    "name": "UHE TELES PIRES RESERVATÓRIO 9",
    "codigoestacao": "17383400",
    "lat": -9.4114,
    "lng": -56.7331,
    "altitude": "220.0",
    "bacia": "RIO AMAZONAS",
    "municipio": "PARANAITA",
    "ultimaAtualizacao": "2020-09-30 00:00:00.0",
    "tipoEstacao": "Fluviometrica"
  },
  {
    "name": "UHE TELES PIRES RESERVATÓRIO 17",
    "codigoestacao": "17382110",
    "lat": -9.4736,
    "lng": -56.4158,
    "altitude": "220.0",
    "bacia": "RIO AMAZONAS",
    "municipio": "PARANAITA",
    "ultimaAtualizacao": "2021-06-23 00:00:00.0",
    "tipoEstacao": "Fluviometrica"
  },
  {
    "name": "UHE TELES PIRES RESERVATÓRIO 16",
    "codigoestacao": "17382120",
    "lat": -9.3914,
    "lng": -56.5706,
    "altitude": "220.0",
    "bacia": "RIO AMAZONAS",
    "municipio": "PARANAITA",
    "ultimaAtualizacao": "2020-09-30 00:00:00.0",
    "tipoEstacao": "Fluviometrica"
  },
  {
    "name": "UHE TELES PIRES RIO PARANAITA",
    "codigoestacao": "17382125",
    "lat": -9.9256,
    "lng": -56.6353,
    "altitude": "244.0",
    "bacia": "RIO AMAZONAS",
    "municipio": "PARANAITA",
    "ultimaAtualizacao": "2021-06-18 00:00:00.0",
    "tipoEstacao": "Fluviometrica"
  },
  {
    "name": "UHE TELES PIRES RESERVATÓRIO 15",
    "codigoestacao": "17382130",
    "lat": -9.3864,
    "lng": -56.6406,
    "altitude": "220.0",
    "bacia": "RIO AMAZONAS",
    "municipio": "PARANAITA",
    "ultimaAtualizacao": "2020-09-30 00:00:00.0",
    "tipoEstacao": "Fluviometrica"
  },
  {
    "name": "UHE TELES PIRES RESERVATÓRIO 14",
    "codigoestacao": "17382140",
    "lat": -9.3533,
    "lng": -56.6936,
    "altitude": "220.0",
    "bacia": "RIO AMAZONAS",
    "municipio": "PARANAITA",
    "ultimaAtualizacao": "2020-09-30 00:00:00.0",
    "tipoEstacao": "Fluviometrica"
  },
  {
    "name": "UHE TELES PIRES RESERVATÓRIO 13",
    "codigoestacao": "17382150",
    "lat": -9.3739,
    "lng": -56.6972,
    "altitude": "220.0",
    "bacia": "RIO AMAZONAS",
    "municipio": "PARANAITA",
    "ultimaAtualizacao": "2020-09-30 00:00:00.0",
    "tipoEstacao": "Fluviometrica"
  },
  {
    "name": "JUSANTE FOZ PEIXOTO DE AZEVEDO",
    "codigoestacao": "17380000",
    "lat": -9.6406,
    "lng": -56.0194,
    "altitude": "226.0",
    "bacia": "RIO AMAZONAS",
    "municipio": "ALTA FLORESTA",
    "ultimaAtualizacao": "2023-09-18 00:00:00.0",
    "tipoEstacao": "Fluviometrica"
  },
  {
    "name": "ALTA FLORESTA",
    "codigoestacao": "17381000",
    "lat": -9.6392,
    "lng": -56.0144,
    "altitude": "225.0",
    "bacia": "RIO AMAZONAS",
    "municipio": "ALTA FLORESTA",
    "ultimaAtualizacao": "2017-03-10 00:00:00.0",
    "tipoEstacao": "Fluviometrica"
  },
  {
    "name": "UHE TELES PIRES MONTANTE 1",
    "codigoestacao": "17381100",
    "lat": -9.6414,
    "lng": -56.0231,
    "altitude": "229.0",
    "bacia": "RIO AMAZONAS",
    "municipio": "ALTA FLORESTA",
    "ultimaAtualizacao": "2023-01-05 00:00:00.0",
    "tipoEstacao": "Fluviometrica"
  },
  {
    "name": "UHE TELES PIRES RIO SANTA HELENA",
    "codigoestacao": "17381600",
    "lat": -9.8028,
    "lng": -56.335,
    "altitude": "244.0",
    "bacia": "RIO AMAZONAS",
    "municipio": "ALTA FLORESTA",
    "ultimaAtualizacao": "2024-01-08 00:00:00.0",
    "tipoEstacao": "Fluviometrica"
  },
  {
    "name": "UHE TELES PIRES MONTANTE 1 DESATIVADA",
    "codigoestacao": "17382000",
    "lat": -9.4531,
    "lng": -56.4922,
    "altitude": "184.0",
    "bacia": "RIO AMAZONAS",
    "municipio": "PARANAITA",
    "ultimaAtualizacao": "2021-06-22 00:00:00.0",
    "tipoEstacao": "Fluviometrica"
  },
  {
    "name": "UHE TELES PIRES RESERVATÓRIO 18",
    "codigoestacao": "17382100",
    "lat": -9.5483,
    "lng": -56.3133,
    "altitude": "220.0",
    "bacia": "RIO AMAZONAS",
    "municipio": "PARANAITA",
    "ultimaAtualizacao": "2020-09-30 00:00:00.0",
    "tipoEstacao": "Fluviometrica"
  },
  {
    "name": "PCH BRAÇO NORTE II JUSANTE",
    "codigoestacao": "17354950",
    "lat": -9.7894,
    "lng": -54.9881,
    "altitude": "272.0",
    "bacia": "RIO AMAZONAS",
    "municipio": "GUARANTÃ DO NORTE",
    "ultimaAtualizacao": "2015-06-19 00:00:00.0",
    "tipoEstacao": "Fluviometrica"
  },
  {
    "name": "PCH BRAÇO NORTE MONTANTE",
    "codigoestacao": "17354970",
    "lat": -9.7992,
    "lng": -54.9867,
    "altitude": "280.0",
    "bacia": "RIO AMAZONAS",
    "municipio": "NOVO MUNDO",
    "ultimaAtualizacao": "2016-04-06 00:00:00.0",
    "tipoEstacao": "Fluviometrica"
  },
  {
    "name": "PCH BRAÇO NORTE BARRAMENTO",
    "codigoestacao": "17354990",
    "lat": -9.8331,
    "lng": -55.0161,
    "altitude": "260.0",
    "bacia": "RIO AMAZONAS",
    "municipio": "NOVO MUNDO",
    "ultimaAtualizacao": "2016-03-07 00:00:00.0",
    "tipoEstacao": "Fluviometrica"
  },
  {
    "name": "PCH BRAÇO NORTE JUSANTE",
    "codigoestacao": "17355000",
    "lat": -9.8386,
    "lng": -55.0192,
    "altitude": "268.0",
    "bacia": "RIO AMAZONAS",
    "municipio": "GUARANTÃ DO NORTE",
    "ultimaAtualizacao": "2015-07-22 00:00:00.0",
    "tipoEstacao": "Fluviometrica"
  },
  {
    "name": "ESTRADA CUIABÁ - SANTARÉM",
    "codigoestacao": "17360000",
    "lat": -10.1833,
    "lng": -55.3667,
    "altitude": "252.0",
    "bacia": "RIO AMAZONAS",
    "municipio": "PEIXOTO DE AZEVEDO",
    "ultimaAtualizacao": "2023-09-18 00:00:00.0",
    "tipoEstacao": "Fluviometrica"
  },
  {
    "name": "UHE TELES PIRES RIO CRISTALINO",
    "codigoestacao": "17378000",
    "lat": -9.5981,
    "lng": -55.9306,
    "altitude": "245.0",
    "bacia": "RIO AMAZONAS",
    "municipio": "ALTA FLORESTA",
    "ultimaAtualizacao": "2024-01-08 00:00:00.0",
    "tipoEstacao": "Fluviometrica"
  },
  {
    "name": "PCH BRAÇO NORTE III  (Guarantã Energética Ltda)",
    "codigoestacao": "17354500",
    "lat": -9.6667,
    "lng": -54.9667,
    "altitude": "N/A",
    "bacia": "RIO AMAZONAS",
    "municipio": "GUARANTÃ DO NORTE",
    "ultimaAtualizacao": "2013-03-25 00:00:00.0",
    "tipoEstacao": "Fluviometrica"
  },
  {
    "name": "PCH BRAÇO NORTE III CÓRREGO QUINZE DE NOVEMBRO",
    "codigoestacao": "17354550",
    "lat": -9.6611,
    "lng": -54.9458,
    "altitude": "329.1",
    "bacia": "RIO AMAZONAS",
    "municipio": "GUARANTÃ DO NORTE",
    "ultimaAtualizacao": "2023-09-21 00:00:00.0",
    "tipoEstacao": "Fluviometrica"
  },
  {
    "name": "PCH BRAÇO NORTE IV BARRAMENTO",
    "codigoestacao": "17354700",
    "lat": -9.6836,
    "lng": -54.9633,
    "altitude": "315.0",
    "bacia": "RIO AMAZONAS",
    "municipio": "GUARANTÃ DO NORTE",
    "ultimaAtualizacao": "2015-07-27 00:00:00.0",
    "tipoEstacao": "Fluviometrica"
  },
  {
    "name": "PCH BRAÇO NORTE IV JUSANTE",
    "codigoestacao": "17354800",
    "lat": -9.6864,
    "lng": -54.9653,
    "altitude": "303.29",
    "bacia": "RIO AMAZONAS",
    "municipio": "GUARANTÃ DO NORTE",
    "ultimaAtualizacao": "2017-10-10 00:00:00.0",
    "tipoEstacao": "Fluviometrica"
  },
  {
    "name": "PCH BRAÇO NORTE II RESERVATÓRIO",
    "codigoestacao": "17354900",
    "lat": -9.7694,
    "lng": -54.9875,
    "altitude": "295.0",
    "bacia": "RIO AMAZONAS",
    "municipio": "GUARANTÃ DO NORTE",
    "ultimaAtualizacao": "2015-06-19 00:00:00.0",
    "tipoEstacao": "Fluviometrica"
  },
  {
    "name": "PCH BRAÇO NORTE II BARRAMENTO",
    "codigoestacao": "17354930",
    "lat": -9.7789,
    "lng": -54.9867,
    "altitude": "310.0",
    "bacia": "RIO AMAZONAS",
    "municipio": "GUARANTÃ DO NORTE",
    "ultimaAtualizacao": "2015-06-19 00:00:00.0",
    "tipoEstacao": "Fluviometrica"
  },
  {
    "name": "CARLINDA",
    "codigoestacao": "17340100",
    "lat": -10.1131,
    "lng": -55.57,
    "altitude": "227.0",
    "bacia": "RIO AMAZONAS",
    "municipio": "CARLINDA",
    "ultimaAtualizacao": "2017-01-25 00:00:00.0",
    "tipoEstacao": "Fluviometrica"
  },
  {
    "name": "UHE TELES PIRES MONTANTE 2",
    "codigoestacao": "17340200",
    "lat": -9.9506,
    "lng": -55.5767,
    "altitude": "237.0",
    "bacia": "RIO AMAZONAS",
    "municipio": "CARLINDA",
    "ultimaAtualizacao": "2023-01-05 00:00:00.0",
    "tipoEstacao": "Fluviometrica"
  },
  {
    "name": "ESTRADA CUIABÁ - SANTARÉM",
    "codigoestacao": "17343000",
    "lat": -10.2194,
    "lng": -54.9708,
    "altitude": "255.0",
    "bacia": "RIO AMAZONAS",
    "municipio": "PEIXOTO DE AZEVEDO",
    "ultimaAtualizacao": "2023-09-18 00:00:00.0",
    "tipoEstacao": "Fluviometrica"
  },
  {
    "name": "CACHIMBO",
    "codigoestacao": "17350000",
    "lat": -9.8172,
    "lng": -54.8858,
    "altitude": "431.0",
    "bacia": "RIO AMAZONAS",
    "municipio": "GUARANTÃ DO NORTE",
    "ultimaAtualizacao": "2023-09-18 00:00:00.0",
    "tipoEstacao": "Fluviometrica"
  },
  {
    "name": "PCH BRAÇO NORTE RIO BRAÇO SUL",
    "codigoestacao": "17354000",
    "lat": -9.8219,
    "lng": -54.9839,
    "altitude": "279.0",
    "bacia": "RIO AMAZONAS",
    "municipio": "GUARANTÃ DO NORTE",
    "ultimaAtualizacao": "2016-04-08 00:00:00.0",
    "tipoEstacao": "Fluviometrica"
  },
  {
    "name": "PCH BRAÇO NORTE III BARRAMENTO",
    "codigoestacao": "17354450",
    "lat": -9.6314,
    "lng": -54.9739,
    "altitude": "334.0",
    "bacia": "RIO AMAZONAS",
    "municipio": "GUARANTÃ DO NORTE",
    "ultimaAtualizacao": "2015-08-26 00:00:00.0",
    "tipoEstacao": "Fluviometrica"
  },
  {
    "name": "UHE COLÍDER RESERVATÓRIO",
    "codigoestacao": "17304000",
    "lat": -10.9822,
    "lng": -55.7003,
    "altitude": "272.0",
    "bacia": "RIO AMAZONAS",
    "municipio": "NOVA CANAÃ DO NORTE",
    "ultimaAtualizacao": "2022-01-14 00:00:00.0",
    "tipoEstacao": "Fluviometrica"
  },
  {
    "name": "UHE COLÍDER BARRAMENTO",
    "codigoestacao": "17305000",
    "lat": -10.975,
    "lng": -55.7683,
    "altitude": "274.0",
    "bacia": "RIO AMAZONAS",
    "municipio": "NOVA CANAÃ DO NORTE",
    "ultimaAtualizacao": "2023-03-17 00:00:00.0",
    "tipoEstacao": "Fluviometrica"
  },
  {
    "name": "UHE COLÍDER JUSANTE",
    "codigoestacao": "17306000",
    "lat": -10.9833,
    "lng": -55.7725,
    "altitude": "N/A",
    "bacia": "RIO AMAZONAS",
    "municipio": "COLÍDER",
    "ultimaAtualizacao": "2018-12-19 00:00:00.0",
    "tipoEstacao": "Fluviometrica"
  },
  {
    "name": "UHE COLÍDER PESQUEIRO DO GIL",
    "codigoestacao": "17307000",
    "lat": -10.9831,
    "lng": -55.8389,
    "altitude": "N/A",
    "bacia": "RIO AMAZONAS",
    "municipio": "COLÍDER",
    "ultimaAtualizacao": "2018-08-10 00:00:00.0",
    "tipoEstacao": "Fluviometrica"
  },
  {
    "name": "NOVA CANAÃ DO NORTE",
    "codigoestacao": "17310000",
    "lat": -10.2383,
    "lng": -55.8075,
    "altitude": "228.0",
    "bacia": "RIO AMAZONAS",
    "municipio": "NOVA CANAÃ DO NORTE",
    "ultimaAtualizacao": "2017-03-10 00:00:00.0",
    "tipoEstacao": "Fluviometrica"
  },
  {
    "name": "INDECO",
    "codigoestacao": "17340000",
    "lat": -10.1133,
    "lng": -55.5706,
    "altitude": "245.0",
    "bacia": "RIO AMAZONAS",
    "municipio": "CARLINDA",
    "ultimaAtualizacao": "2023-09-18 00:00:00.0",
    "tipoEstacao": "Fluviometrica"
  },
  {
    "name": "UHE SINOP RESERVATÓRIO 2",
    "codigoestacao": "17280970",
    "lat": -11.4017,
    "lng": -55.5108,
    "altitude": "284.0",
    "bacia": "RIO AMAZONAS",
    "municipio": "SINOP",
    "ultimaAtualizacao": "2020-11-13 00:00:00.0",
    "tipoEstacao": "Fluviometrica"
  },
  {
    "name": "UHE SINOP BARRAMENTO",
    "codigoestacao": "17280980",
    "lat": -11.2797,
    "lng": -55.4442,
    "altitude": "276.0",
    "bacia": "RIO AMAZONAS",
    "municipio": "SINOP",
    "ultimaAtualizacao": "2020-11-13 00:00:00.0",
    "tipoEstacao": "Fluviometrica"
  },
  {
    "name": "UHE SINOP JUSANTE",
    "codigoestacao": "17280990",
    "lat": -11.2653,
    "lng": -55.4511,
    "altitude": "274.0",
    "bacia": "RIO AMAZONAS",
    "municipio": "SINOP",
    "ultimaAtualizacao": "2020-11-13 00:00:00.0",
    "tipoEstacao": "Fluviometrica"
  },
  {
    "name": "ITAUBA",
    "codigoestacao": "17290000",
    "lat": -11.0944,
    "lng": -55.3058,
    "altitude": "267.0",
    "bacia": "RIO AMAZONAS",
    "municipio": "ITAUBA",
    "ultimaAtualizacao": "2017-01-25 00:00:00.0",
    "tipoEstacao": "Fluviometrica"
  },
  {
    "name": "UHE COLÍDER RIO RENATO",
    "codigoestacao": "17291000",
    "lat": -11.0628,
    "lng": -55.2783,
    "altitude": "N/A",
    "bacia": "RIO AMAZONAS",
    "municipio": "ITAUBA",
    "ultimaAtualizacao": "2022-03-02 00:00:00.0",
    "tipoEstacao": "Fluviometrica"
  },
  {
    "name": "FAZENDA TRATEX",
    "codigoestacao": "17300000",
    "lat": -10.9558,
    "lng": -55.5508,
    "altitude": "250.0",
    "bacia": "RIO AMAZONAS",
    "municipio": "COLÍDER",
    "ultimaAtualizacao": "2023-09-18 00:00:00.0",
    "tipoEstacao": "Fluviometrica"
  },
  {
    "name": "PCH FOZ DO CEDRO BARRAMENTO",
    "codigoestacao": "17278490",
    "lat": -12.7508,
    "lng": -56.0336,
    "altitude": "337.0",
    "bacia": "RIO AMAZONAS",
    "municipio": "SORRISO",
    "ultimaAtualizacao": "2023-05-31 00:00:00.0",
    "tipoEstacao": "Fluviometrica"
  },
  {
    "name": "PCH FOZ DO CEDRO JUSANTE",
    "codigoestacao": "17278500",
    "lat": -12.7494,
    "lng": -56.0336,
    "altitude": "323.0",
    "bacia": "RIO AMAZONAS",
    "municipio": "SORRISO",
    "ultimaAtualizacao": "2021-11-25 00:00:00.0",
    "tipoEstacao": "Fluviometrica"
  },
  {
    "name": "SINOP",
    "codigoestacao": "17279000",
    "lat": -11.6531,
    "lng": -55.7036,
    "altitude": "304.0",
    "bacia": "RIO AMAZONAS",
    "municipio": "SINOP",
    "ultimaAtualizacao": "2017-01-25 00:00:00.0",
    "tipoEstacao": "Fluviometrica"
  },
  {
    "name": "CACHOEIRÃO",
    "codigoestacao": "17280000",
    "lat": -11.6517,
    "lng": -55.7025,
    "altitude": "311.0",
    "bacia": "RIO AMAZONAS",
    "municipio": "SINOP",
    "ultimaAtualizacao": "2023-09-18 00:00:00.0",
    "tipoEstacao": "Fluviometrica"
  },
  {
    "name": "UHE COLÍDER CACHOEIRÃO",
    "codigoestacao": "17280500",
    "lat": -11.6511,
    "lng": -55.7019,
    "altitude": "N/A",
    "bacia": "RIO AMAZONAS",
    "municipio": "SINOP",
    "ultimaAtualizacao": "2022-01-14 00:00:00.0",
    "tipoEstacao": "Fluviometrica"
  },
  {
    "name": "UHE SINOP RESERVATÓRIO 1",
    "codigoestacao": "17280940",
    "lat": -11.4147,
    "lng": -55.5233,
    "altitude": "279.0",
    "bacia": "RIO AMAZONAS",
    "municipio": "SINOP",
    "ultimaAtualizacao": "2020-11-13 00:00:00.0",
    "tipoEstacao": "Fluviometrica"
  },
  {
    "name": "UHE COLÍDER PONTE MT-242",
    "codigoestacao": "17275000",
    "lat": -12.2589,
    "lng": -55.9494,
    "altitude": "N/A",
    "bacia": "RIO AMAZONAS",
    "municipio": "SORRISO",
    "ultimaAtualizacao": "2022-02-25 00:00:00.0",
    "tipoEstacao": "Fluviometrica"
  },
  {
    "name": "UHE SINOP RIO VERDE",
    "codigoestacao": "17275100",
    "lat": -12.1731,
    "lng": -55.8994,
    "altitude": "310.0",
    "bacia": "RIO AMAZONAS",
    "municipio": "SINOP",
    "ultimaAtualizacao": "2020-11-13 00:00:00.0",
    "tipoEstacao": "Fluviometrica"
  },
  {
    "name": "FAZENDA CERON",
    "codigoestacao": "17277000",
    "lat": -12.65,
    "lng": -55.5683,
    "altitude": "N/A",
    "bacia": "RIO AMAZONAS",
    "municipio": "SORRISO",
    "ultimaAtualizacao": "2014-07-23 00:00:00.0",
    "tipoEstacao": "Fluviometrica"
  },
  {
    "name": "UHE SINOP MONTANTE 1",
    "codigoestacao": "17277300",
    "lat": -12.2881,
    "lng": -55.6008,
    "altitude": "309.0",
    "bacia": "RIO AMAZONAS",
    "municipio": "SINOP",
    "ultimaAtualizacao": "2020-11-13 00:00:00.0",
    "tipoEstacao": "Fluviometrica"
  },
  {
    "name": "UHE SINOP MONTANTE 2",
    "codigoestacao": "17277500",
    "lat": -13.1433,
    "lng": -55.6669,
    "altitude": "331.0",
    "bacia": "RIO AMAZONAS",
    "municipio": "SINOP",
    "ultimaAtualizacao": "2020-11-13 00:00:00.0",
    "tipoEstacao": "Fluviometrica"
  },
  {
    "name": "SORRISO",
    "codigoestacao": "17278000",
    "lat": -12.2914,
    "lng": -55.5656,
    "altitude": "310.0",
    "bacia": "RIO AMAZONAS",
    "municipio": "SORRISO",
    "ultimaAtualizacao": "2017-03-10 00:00:00.0",
    "tipoEstacao": "Fluviometrica"
  },
  {
    "name": "PCH CANOA QUEBRADA JUSANTE",
    "codigoestacao": "17270000",
    "lat": -12.7933,
    "lng": -56.0108,
    "altitude": "336.0",
    "bacia": "RIO AMAZONAS",
    "municipio": "LUCAS DO RIO VERDE",
    "ultimaAtualizacao": "2014-06-05 00:00:00.0",
    "tipoEstacao": "Fluviometrica"
  },
  {
    "name": "SORRISO",
    "codigoestacao": "17271000",
    "lat": -12.535,
    "lng": -55.7053,
    "altitude": "323.0",
    "bacia": "RIO AMAZONAS",
    "municipio": "SORRISO",
    "ultimaAtualizacao": "2017-01-25 00:00:00.0",
    "tipoEstacao": "Fluviometrica"
  },
  {
    "name": "SORRISO",
    "codigoestacao": "17271100",
    "lat": -12.535,
    "lng": -55.7072,
    "altitude": "N/A",
    "bacia": "RIO AMAZONAS",
    "municipio": "SORRISO",
    "ultimaAtualizacao": "2014-07-23 00:00:00.0",
    "tipoEstacao": "Fluviometrica"
  },
  {
    "name": "SORRISO",
    "codigoestacao": "17272000",
    "lat": -12.6739,
    "lng": -55.7939,
    "altitude": "309.0",
    "bacia": "RIO AMAZONAS",
    "municipio": "SORRISO",
    "ultimaAtualizacao": "2017-01-25 00:00:00.0",
    "tipoEstacao": "Fluviometrica"
  },
  {
    "name": "SINOP",
    "codigoestacao": "17273000",
    "lat": -11.8939,
    "lng": -55.6561,
    "altitude": "313.0",
    "bacia": "RIO AMAZONAS",
    "municipio": "SINOP",
    "ultimaAtualizacao": "2017-03-10 00:00:00.0",
    "tipoEstacao": "Fluviometrica"
  },
  {
    "name": "UHE COLÍDER PONTE MT-222",
    "codigoestacao": "17273100",
    "lat": -11.8939,
    "lng": -55.6561,
    "altitude": "N/A",
    "bacia": "RIO AMAZONAS",
    "municipio": "SINOP",
    "ultimaAtualizacao": "2022-01-14 00:00:00.0",
    "tipoEstacao": "Fluviometrica"
  },
  {
    "name": "FAZENDA JOÃO E MARCELO",
    "codigoestacao": "17240000",
    "lat": -13.4353,
    "lng": -57.0181,
    "altitude": "332.0",
    "bacia": "RIO AMAZONAS",
    "municipio": "SÃO JOSÉ DO RIO CLARO",
    "ultimaAtualizacao": "2013-03-25 00:00:00.0",
    "tipoEstacao": "Fluviometrica"
  },
  {
    "name": "PCH NOVA MUTUM MONTANTE",
    "codigoestacao": "17240900",
    "lat": -13.7583,
    "lng": -56.0536,
    "altitude": "395.0",
    "bacia": "RIO AMAZONAS",
    "municipio": "NOVA MUTUM",
    "ultimaAtualizacao": "2018-03-16 00:00:00.0",
    "tipoEstacao": "Fluviometrica"
  },
  {
    "name": "FAZENDA RECANTO",
    "codigoestacao": "17250000",
    "lat": -13.7125,
    "lng": -56.0992,
    "altitude": "391.0",
    "bacia": "RIO AMAZONAS",
    "municipio": "NOVA MUTUM",
    "ultimaAtualizacao": "2013-03-25 00:00:00.0",
    "tipoEstacao": "Fluviometrica"
  },
  {
    "name": "PCH NOVA MUTUM BARRRAMENTO",
    "codigoestacao": "17250500",
    "lat": -13.6036,
    "lng": -56.2006,
    "altitude": "340.0",
    "bacia": "RIO AMAZONAS",
    "municipio": "NOVA MUTUM",
    "ultimaAtualizacao": "2021-05-06 00:00:00.0",
    "tipoEstacao": "Fluviometrica"
  },
  {
    "name": "PCH NOVA MUTUM JUSANTE",
    "codigoestacao": "17250550",
    "lat": -13.5914,
    "lng": -56.2164,
    "altitude": "337.0",
    "bacia": "RIO AMAZONAS",
    "municipio": "NOVA MUTUM",
    "ultimaAtualizacao": "2018-03-16 00:00:00.0",
    "tipoEstacao": "Fluviometrica"
  },
  {
    "name": "PCH CANOA QUEBRADA BARRAMENTO",
    "codigoestacao": "17260000",
    "lat": -12.7939,
    "lng": -56.0083,
    "altitude": "360.0",
    "bacia": "RIO AMAZONAS",
    "municipio": "LUCAS DO RIO VERDE",
    "ultimaAtualizacao": "2014-06-06 00:00:00.0",
    "tipoEstacao": "Fluviometrica"
  },
  {
    "name": "CGH BURITIZAL MONTANTE",
    "codigoestacao": "17224000",
    "lat": -13.7028,
    "lng": -56.7861,
    "altitude": "333.0",
    "bacia": "RIO AMAZONAS",
    "municipio": "DIAMANTINO",
    "ultimaAtualizacao": "2021-07-15 00:00:00.0",
    "tipoEstacao": "Fluviometrica"
  },
  {
    "name": "CGH SANTO ANTÔNIO I JUSANTE",
    "codigoestacao": "17224100",
    "lat": -14.0506,
    "lng": -56.9619,
    "altitude": "400.0",
    "bacia": "RIO AMAZONAS",
    "municipio": "DIAMANTINO",
    "ultimaAtualizacao": "2024-04-05 00:00:00.0",
    "tipoEstacao": "Fluviometrica"
  },
  {
    "name": "PCH CANOA QUEBRADA RIBEIRÃO GRANDE",
    "codigoestacao": "17228000",
    "lat": -13.4017,
    "lng": -55.8269,
    "altitude": "382.0",
    "bacia": "RIO AMAZONAS",
    "municipio": "NOVA MUTUM",
    "ultimaAtualizacao": "2024-09-02 00:00:00.0",
    "tipoEstacao": "Fluviometrica"
  },
  {
    "name": "PCH CANOA QUEBRADA RIBEIRÃO RANCHÃO",
    "codigoestacao": "17229000",
    "lat": -13.2986,
    "lng": -55.9122,
    "altitude": "383.0",
    "bacia": "RIO AMAZONAS",
    "municipio": "LUCAS DO RIO VERDE",
    "ultimaAtualizacao": "2024-09-02 00:00:00.0",
    "tipoEstacao": "Fluviometrica"
  },
  {
    "name": "PCH CANOA QUEBRADA MONTANTE",
    "codigoestacao": "17230000",
    "lat": -13.0519,
    "lng": -55.905,
    "altitude": "377.0",
    "bacia": "RIO AMAZONAS",
    "municipio": "LUCAS DO RIO VERDE",
    "ultimaAtualizacao": "2024-09-02 00:00:00.0",
    "tipoEstacao": "Fluviometrica"
  },
  {
    "name": "LUCAS DO RIO VERDE",
    "codigoestacao": "17231000",
    "lat": -13.0508,
    "lng": -55.9078,
    "altitude": "378.0",
    "bacia": "RIO AMAZONAS",
    "municipio": "LUCAS DO RIO VERDE",
    "ultimaAtualizacao": "2017-01-25 00:00:00.0",
    "tipoEstacao": "Fluviometrica"
  },
  {
    "name": "TELES PIRES",
    "codigoestacao": "17210000",
    "lat": -12.6742,
    "lng": -55.7928,
    "altitude": "316.0",
    "bacia": "RIO AMAZONAS",
    "municipio": "SORRISO",
    "ultimaAtualizacao": "2023-09-18 00:00:00.0",
    "tipoEstacao": "Fluviometrica"
  },
  {
    "name": "CGH ÁGUA QUENTE MONTANTE",
    "codigoestacao": "17211100",
    "lat": -13.4383,
    "lng": -58.6981,
    "altitude": "483.0",
    "bacia": "RIO AMAZONAS",
    "municipio": "SAPEZAL",
    "ultimaAtualizacao": "2024-02-19 00:00:00.0",
    "tipoEstacao": "Fluviometrica"
  },
  {
    "name": "CGH APROVALE BARRAMENTO",
    "codigoestacao": "17219300",
    "lat": -12.8908,
    "lng": -56.1392,
    "altitude": "367.0",
    "bacia": "RIO AMAZONAS",
    "municipio": "LUCAS DO RIO VERDE",
    "ultimaAtualizacao": "2023-09-22 00:00:00.0",
    "tipoEstacao": "Fluviometrica"
  },
  {
    "name": "CGH APROVALE JUSANTE",
    "codigoestacao": "17219600",
    "lat": -12.8811,
    "lng": -56.1567,
    "altitude": "364.0",
    "bacia": "RIO AMAZONAS",
    "municipio": "LUCAS DO RIO VERDE",
    "ultimaAtualizacao": "2023-09-22 00:00:00.0",
    "tipoEstacao": "Fluviometrica"
  },
  {
    "name": "PCH APROVALE",
    "codigoestacao": "17220000",
    "lat": -12.7908,
    "lng": -56.1619,
    "altitude": "N/A",
    "bacia": "RIO AMAZONAS",
    "municipio": "LUCAS DO RIO VERDE",
    "ultimaAtualizacao": "2018-04-16 00:00:00.0",
    "tipoEstacao": "Fluviometrica"
  },
  {
    "name": "CGH CORRENTÃO JUSANTE",
    "codigoestacao": "17223000",
    "lat": -13.8217,
    "lng": -56.9889,
    "altitude": "418.0",
    "bacia": "RIO AMAZONAS",
    "municipio": "SÃO JOSÉ DO RIO CLARO",
    "ultimaAtualizacao": "2024-06-04 00:00:00.0",
    "tipoEstacao": "Fluviometrica"
  },
  {
    "name": "CGH FAZENDA MODELO JUSANTE",
    "codigoestacao": "17123110",
    "lat": -10.5311,
    "lng": -57.8956,
    "altitude": "370.0",
    "bacia": "RIO AMAZONAS",
    "municipio": "JUARA",
    "ultimaAtualizacao": "2023-08-09 00:00:00.0",
    "tipoEstacao": "Fluviometrica"
  },
  {
    "name": "NÚCLEO ARIEL",
    "codigoestacao": "17124000",
    "lat": -9.85,
    "lng": -58.2333,
    "altitude": "215.0",
    "bacia": "RIO AMAZONAS",
    "municipio": "COTRIGUAÇU",
    "ultimaAtualizacao": "2023-09-18 00:00:00.0",
    "tipoEstacao": "Fluviometrica"
  },
  {
    "name": "EBEC - DIAUARUM (PORTO DA BALSA)",
    "codigoestacao": "17125000",
    "lat": -9.8792,
    "lng": -58.235,
    "altitude": "198.0",
    "bacia": "RIO AMAZONAS",
    "municipio": "COTRIGUAÇU",
    "ultimaAtualizacao": "2023-09-18 00:00:00.0",
    "tipoEstacao": "Fluviometrica"
  },
  {
    "name": "PONTE MONTE VERDE",
    "codigoestacao": "17127000",
    "lat": -9.9864,
    "lng": -57.6711,
    "altitude": "N/A",
    "bacia": "RIO AMAZONAS",
    "municipio": "PARANAITA",
    "ultimaAtualizacao": "2013-05-20 00:00:00.0",
    "tipoEstacao": "Fluviometrica"
  },
  {
    "name": "FOZ DO JURUENA",
    "codigoestacao": "17130000",
    "lat": -7.7311,
    "lng": -58.2808,
    "altitude": "123.0",
    "bacia": "RIO AMAZONAS",
    "municipio": "APIACÁS",
    "ultimaAtualizacao": "2023-09-18 00:00:00.0",
    "tipoEstacao": "Fluviometrica"
  },
  {
    "name": "PORTO RONCADOR",
    "codigoestacao": "17200000",
    "lat": -13.5575,
    "lng": -55.3347,
    "altitude": "346.0",
    "bacia": "RIO AMAZONAS",
    "municipio": "SORRISO",
    "ultimaAtualizacao": "2023-09-18 00:00:00.0",
    "tipoEstacao": "Fluviometrica"
  },
  {
    "name": "CAIABIS (BALSA - ITAPAIUNA)",
    "codigoestacao": "17121000",
    "lat": -10.9836,
    "lng": -57.0658,
    "altitude": "293.0",
    "bacia": "RIO AMAZONAS",
    "municipio": "JUARA",
    "ultimaAtualizacao": "2013-05-20 00:00:00.0",
    "tipoEstacao": "Fluviometrica"
  },
  {
    "name": "RIO DOS PEIXES",
    "codigoestacao": "17122000",
    "lat": -10.8231,
    "lng": -57.7272,
    "altitude": "208.0",
    "bacia": "RIO AMAZONAS",
    "municipio": "JUARA",
    "ultimaAtualizacao": "2023-09-18 00:00:00.0",
    "tipoEstacao": "Fluviometrica"
  },
  {
    "name": "JUARA",
    "codigoestacao": "17122001",
    "lat": -10.8231,
    "lng": -57.7272,
    "altitude": "N/A",
    "bacia": "RIO AMAZONAS",
    "municipio": "JUARA",
    "ultimaAtualizacao": "2017-01-25 00:00:00.0",
    "tipoEstacao": "Fluviometrica"
  },
  {
    "name": "RIO ARINOS",
    "codigoestacao": "17123000",
    "lat": -10.6392,
    "lng": -58.0042,
    "altitude": "205.0",
    "bacia": "RIO AMAZONAS",
    "municipio": "JUARA",
    "ultimaAtualizacao": "2023-09-18 00:00:00.0",
    "tipoEstacao": "Fluviometrica"
  },
  {
    "name": "RIO ARINOS - JUARA",
    "codigoestacao": "17123001",
    "lat": -10.6392,
    "lng": -58.0042,
    "altitude": "205.0",
    "bacia": "RIO AMAZONAS",
    "municipio": "JUARA",
    "ultimaAtualizacao": "2017-09-29 00:00:00.0",
    "tipoEstacao": "Fluviometrica"
  },
  {
    "name": "CGH FAZENDA MODELO BARRAMENTO",
    "codigoestacao": "17123100",
    "lat": -10.5269,
    "lng": -57.895,
    "altitude": "415.0",
    "bacia": "RIO AMAZONAS",
    "municipio": "JUARA",
    "ultimaAtualizacao": "2023-08-09 00:00:00.0",
    "tipoEstacao": "Fluviometrica"
  },
  {
    "name": "FAZENDA TAUA",
    "codigoestacao": "17100000",
    "lat": -13.3844,
    "lng": -56.6103,
    "altitude": "284.0",
    "bacia": "RIO AMAZONAS",
    "municipio": "SÃO JOSÉ DO RIO CLARO",
    "ultimaAtualizacao": "2023-09-18 00:00:00.0",
    "tipoEstacao": "Fluviometrica"
  },
  {
    "name": "PLANALTO DA SERRA",
    "codigoestacao": "17118000",
    "lat": -14.6311,
    "lng": -54.6469,
    "altitude": "451.0",
    "bacia": "RIO AMAZONAS",
    "municipio": "PLANALTO DA SERRA",
    "ultimaAtualizacao": "2017-01-25 00:00:00.0",
    "tipoEstacao": "Fluviometrica"
  },
  {
    "name": "UHE DO SALTO MAGESSI",
    "codigoestacao": "17119000",
    "lat": -13.6167,
    "lng": -55.1833,
    "altitude": "N/A",
    "bacia": "RIO AMAZONAS",
    "municipio": "NOBRES",
    "ultimaAtualizacao": "2013-02-27 00:00:00.0",
    "tipoEstacao": "Fluviometrica"
  },
  {
    "name": "SANTA RITA DO TRIVELATO",
    "codigoestacao": "17119500",
    "lat": -13.5775,
    "lng": -55.2681,
    "altitude": "337.0",
    "bacia": "RIO AMAZONAS",
    "municipio": "SANTA RITA DO TRIVELATO",
    "ultimaAtualizacao": "2017-01-25 00:00:00.0",
    "tipoEstacao": "Fluviometrica"
  },
  {
    "name": "PORTO DOS GAÚCHOS",
    "codigoestacao": "17120000",
    "lat": -11.5367,
    "lng": -57.4236,
    "altitude": "232.0",
    "bacia": "RIO AMAZONAS",
    "municipio": "PORTO DOS GAÚCHOS",
    "ultimaAtualizacao": "2023-09-18 00:00:00.0",
    "tipoEstacao": "Fluviometrica"
  },
  {
    "name": "PORTO DOS GAUCHOS",
    "codigoestacao": "17120001",
    "lat": -11.5367,
    "lng": -57.4236,
    "altitude": "N/A",
    "bacia": "RIO AMAZONAS",
    "municipio": "PORTO DOS GAÚCHOS",
    "ultimaAtualizacao": "2017-01-25 00:00:00.0",
    "tipoEstacao": "Fluviometrica"
  },
  {
    "name": "CGH NOVO COLORADO JUSANTE",
    "codigoestacao": "17099130",
    "lat": -13.9764,
    "lng": -57.0428,
    "altitude": "440.0",
    "bacia": "RIO AMAZONAS",
    "municipio": "DIAMANTINO",
    "ultimaAtualizacao": "2024-08-12 00:00:00.0",
    "tipoEstacao": "Fluviometrica"
  },
  {
    "name": "CGH ÁGUA VERDE JUSANTE",
    "codigoestacao": "17099200",
    "lat": -13.965,
    "lng": -56.8833,
    "altitude": "383.0",
    "bacia": "RIO AMAZONAS",
    "municipio": "DIAMANTINO",
    "ultimaAtualizacao": "2024-07-18 00:00:00.0",
    "tipoEstacao": "Fluviometrica"
  },
  {
    "name": "PCH RIO CLARO MONTANTE",
    "codigoestacao": "17099300",
    "lat": -13.9589,
    "lng": -56.7422,
    "altitude": "351.0",
    "bacia": "RIO AMAZONAS",
    "municipio": "DIAMANTINO",
    "ultimaAtualizacao": "2022-05-05 00:00:00.0",
    "tipoEstacao": "Fluviometrica"
  },
  {
    "name": "PCH RIO CLARO BARRAMENTO",
    "codigoestacao": "17099320",
    "lat": -13.7969,
    "lng": -56.7003,
    "altitude": "336.0",
    "bacia": "RIO AMAZONAS",
    "municipio": "SÃO JOSÉ DO RIO CLARO",
    "ultimaAtualizacao": "2023-07-25 00:00:00.0",
    "tipoEstacao": "Fluviometrica"
  },
  {
    "name": "PCH RIO CLARO JUSANTE",
    "codigoestacao": "17099400",
    "lat": -13.7925,
    "lng": -56.7039,
    "altitude": "304.0",
    "bacia": "RIO AMAZONAS",
    "municipio": "DIAMANTINO",
    "ultimaAtualizacao": "2022-05-05 00:00:00.0",
    "tipoEstacao": "Fluviometrica"
  },
  {
    "name": "FAZENDA MASSAPÉ",
    "codigoestacao": "17099500",
    "lat": -13.5025,
    "lng": -56.6183,
    "altitude": "N/A",
    "bacia": "RIO AMAZONAS",
    "municipio": "SÃO JOSÉ DO RIO CLARO",
    "ultimaAtualizacao": "2014-07-23 00:00:00.0",
    "tipoEstacao": "Fluviometrica"
  },
  {
    "name": "FAZENDA TOMBADOR",
    "codigoestacao": "17095000",
    "lat": -11.7181,
    "lng": -58.0481,
    "altitude": "244.0",
    "bacia": "RIO AMAZONAS",
    "municipio": "BRASNORTE",
    "ultimaAtualizacao": "2023-09-18 00:00:00.0",
    "tipoEstacao": "Fluviometrica"
  },
  {
    "name": "GLEBA AGROSAN",
    "codigoestacao": "17097000",
    "lat": -11.3214,
    "lng": -58.1289,
    "altitude": "249.0",
    "bacia": "RIO AMAZONAS",
    "municipio": "BRASNORTE",
    "ultimaAtualizacao": "2023-09-18 00:00:00.0",
    "tipoEstacao": "Fluviometrica"
  },
  {
    "name": "FAZENDA VALE DO TUCANA",
    "codigoestacao": "17098000",
    "lat": -10.4386,
    "lng": -58.3472,
    "altitude": "210.0",
    "bacia": "RIO AMAZONAS",
    "municipio": "JURUENA",
    "ultimaAtualizacao": "2023-09-18 00:00:00.0",
    "tipoEstacao": "Fluviometrica"
  },
  {
    "name": "FAZENDA CACHOEIRA GRANDE",
    "codigoestacao": "17098500",
    "lat": -14.2169,
    "lng": -56.0347,
    "altitude": "N/A",
    "bacia": "RIO AMAZONAS",
    "municipio": "NOVA MUTUM",
    "ultimaAtualizacao": "2018-09-17 00:00:00.0",
    "tipoEstacao": "Fluviometrica"
  },
  {
    "name": "FAZENDA CACHOEIRA DE PAU",
    "codigoestacao": "17099000",
    "lat": -13.8319,
    "lng": -56.4125,
    "altitude": "N/A",
    "bacia": "RIO AMAZONAS",
    "municipio": "NOVA MUTUM",
    "ultimaAtualizacao": "2014-07-23 00:00:00.0",
    "tipoEstacao": "Fluviometrica"
  },
  {
    "name": "CGH NOVO COLORADO BARRAMENTO",
    "codigoestacao": "17099100",
    "lat": -13.9836,
    "lng": -57.0681,
    "altitude": "464.0",
    "bacia": "RIO AMAZONAS",
    "municipio": "DIAMANTINO",
    "ultimaAtualizacao": "2024-08-12 00:00:00.0",
    "tipoEstacao": "Fluviometrica"
  },
  {
    "name": "BRASNORTE",
    "codigoestacao": "17094300",
    "lat": -12.0964,
    "lng": -57.8803,
    "altitude": "N/A",
    "bacia": "RIO AMAZONAS",
    "municipio": "BRASNORTE",
    "ultimaAtualizacao": "2017-04-28 00:00:00.0",
    "tipoEstacao": "Fluviometrica"
  },
  {
    "name": "PCH BOCAIÚVA MONTANTE",
    "codigoestacao": "17094400",
    "lat": -12.5733,
    "lng": -57.8831,
    "altitude": "314.0",
    "bacia": "RIO AMAZONAS",
    "municipio": "BRASNORTE",
    "ultimaAtualizacao": "2015-10-21 00:00:00.0",
    "tipoEstacao": "Fluviometrica"
  },
  {
    "name": "FAZENDA ALEGRIA",
    "codigoestacao": "17094500",
    "lat": -12.5406,
    "lng": -57.8833,
    "altitude": "N/A",
    "bacia": "RIO AMAZONAS",
    "municipio": "BRASNORTE",
    "ultimaAtualizacao": "2013-05-20 00:00:00.0",
    "tipoEstacao": "Fluviometrica"
  },
  {
    "name": "PCH BOCAIÚVA BARRAMENTO",
    "codigoestacao": "17094520",
    "lat": -12.5294,
    "lng": -57.8783,
    "altitude": "311.0",
    "bacia": "RIO AMAZONAS",
    "municipio": "BRASNORTE",
    "ultimaAtualizacao": "2015-10-21 00:00:00.0",
    "tipoEstacao": "Fluviometrica"
  },
  {
    "name": "PCH BOCAIÚVA JUSANTE",
    "codigoestacao": "17094550",
    "lat": -12.4822,
    "lng": -57.8744,
    "altitude": "275.0",
    "bacia": "RIO AMAZONAS",
    "municipio": "BRASNORTE",
    "ultimaAtualizacao": "2015-10-21 00:00:00.0",
    "tipoEstacao": "Fluviometrica"
  },
  {
    "name": "CRAVARI (CR-01)",
    "codigoestacao": "17094600",
    "lat": -12.4356,
    "lng": -57.8839,
    "altitude": "N/A",
    "bacia": "RIO AMAZONAS",
    "municipio": "BRASNORTE",
    "ultimaAtualizacao": "2013-05-20 00:00:00.0",
    "tipoEstacao": "Fluviometrica"
  },
  {
    "name": "PCH BARUITO BARRAMENTO",
    "codigoestacao": "17094000",
    "lat": -13.3197,
    "lng": -57.5978,
    "altitude": "330.0",
    "bacia": "RIO AMAZONAS",
    "municipio": "CAMPO NOVO DO PARECIS",
    "ultimaAtualizacao": "2023-03-17 00:00:00.0",
    "tipoEstacao": "Fluviometrica"
  },
  {
    "name": "RIO DO SANGUE (SG-03)",
    "codigoestacao": "17094005",
    "lat": -13.3172,
    "lng": -57.5975,
    "altitude": "N/A",
    "bacia": "RIO AMAZONAS",
    "municipio": "CAMPO NOVO DO PARECIS",
    "ultimaAtualizacao": "2017-03-20 00:00:00.0",
    "tipoEstacao": "Fluviometrica"
  },
  {
    "name": "PCH BARUITO JUSANTE",
    "codigoestacao": "17094010",
    "lat": -13.3014,
    "lng": -57.5881,
    "altitude": "327.0",
    "bacia": "RIO AMAZONAS",
    "municipio": "CAMPO NOVO DO PARECIS",
    "ultimaAtualizacao": "2023-03-17 00:00:00.0",
    "tipoEstacao": "Fluviometrica"
  },
  {
    "name": "PCH INXU JUSANTE",
    "codigoestacao": "17094050",
    "lat": -13.205,
    "lng": -57.505,
    "altitude": "291.17",
    "bacia": "RIO AMAZONAS",
    "municipio": "NOVA MARINGÁ",
    "ultimaAtualizacao": "2017-03-23 00:00:00.0",
    "tipoEstacao": "Fluviometrica"
  },
  {
    "name": "FAZENDA PONTE DE PEDRA",
    "codigoestacao": "17094100",
    "lat": -13.6036,
    "lng": -57.3908,
    "altitude": "N/A",
    "bacia": "RIO AMAZONAS",
    "municipio": "PORTO DOS GAÚCHOS",
    "ultimaAtualizacao": "2013-05-20 00:00:00.0",
    "tipoEstacao": "Fluviometrica"
  },
  {
    "name": "PONTE MT-428 (Rio do Sangue)",
    "codigoestacao": "17094200",
    "lat": -12.1091666666667,
    "lng": -57.8730555555556,
    "altitude": "126.0",
    "bacia": "RIO AMAZONAS",
    "municipio": "BRASNORTE",
    "ultimaAtualizacao": "2007-03-02 00:00:00.0",
    "tipoEstacao": "Fluviometrica"
  },
  {
    "name": "FAZENDA BEIRA RIO",
    "codigoestacao": "17093450",
    "lat": -13.6892,
    "lng": -57.7028,
    "altitude": "N/A",
    "bacia": "RIO AMAZONAS",
    "municipio": "CAMPO NOVO DO PARECIS",
    "ultimaAtualizacao": "2017-03-20 00:00:00.0",
    "tipoEstacao": "Fluviometrica"
  },
  {
    "name": "PCH GARGANTA DA JARARACA MONTANTE 2",
    "codigoestacao": "17093500",
    "lat": -13.4733,
    "lng": -57.6417,
    "altitude": "419.0",
    "bacia": "RIO AMAZONAS",
    "municipio": "CAMPO NOVO DO PARECIS",
    "ultimaAtualizacao": "2014-06-09 00:00:00.0",
    "tipoEstacao": "Fluviometrica"
  },
  {
    "name": "PCH GARGANTA DA JARARACA BARRAMENTO",
    "codigoestacao": "17093600",
    "lat": -13.3878,
    "lng": -57.6225,
    "altitude": "401.0",
    "bacia": "RIO AMAZONAS",
    "municipio": "CAMPO NOVO DO PARECIS",
    "ultimaAtualizacao": "2014-06-09 00:00:00.0",
    "tipoEstacao": "Fluviometrica"
  },
  {
    "name": "PCH GARGANTA DA JARARACA  JUSANTE",
    "codigoestacao": "17093700",
    "lat": -13.3867,
    "lng": -57.6244,
    "altitude": "370.0",
    "bacia": "RIO AMAZONAS",
    "municipio": "CAMPO NOVO DO PARECIS",
    "ultimaAtualizacao": "2014-06-09 00:00:00.0",
    "tipoEstacao": "Fluviometrica"
  },
  {
    "name": "PCH INXU BARRAMENTO",
    "codigoestacao": "17093750",
    "lat": -13.3556,
    "lng": -57.6136,
    "altitude": "363.3",
    "bacia": "RIO AMAZONAS",
    "municipio": "NOVA MARINGÁ",
    "ultimaAtualizacao": "2017-03-23 00:00:00.0",
    "tipoEstacao": "Fluviometrica"
  },
  {
    "name": "UHE BARUITO MONTANTE",
    "codigoestacao": "17093800",
    "lat": -13.3353,
    "lng": -57.6139,
    "altitude": "352.0",
    "bacia": "RIO AMAZONAS",
    "municipio": "CAMPO NOVO DO PARECIS",
    "ultimaAtualizacao": "2016-10-24 00:00:00.0",
    "tipoEstacao": "Fluviometrica"
  },
  {
    "name": "FAZENDA CACHOEIRA GRANDE",
    "codigoestacao": "1456011",
    "lat": -14.2169,
    "lng": -56.0347,
    "altitude": "N/A",
    "bacia": "RIO AMAZONAS",
    "municipio": "NOVA MUTUM",
    "ultimaAtualizacao": "2011-09-13 00:00:00.0",
    "tipoEstacao": "Pluviometrica"
  },
  {
    "name": "CGH SANTO ANTÔNIO I JUSANTE",
    "codigoestacao": "1456019",
    "lat": -14.0506,
    "lng": -56.9619,
    "altitude": "400.0",
    "bacia": "RIO AMAZONAS",
    "municipio": "DIAMANTINO",
    "ultimaAtualizacao": "2024-04-05 00:00:00.0",
    "tipoEstacao": "Pluviometrica"
  },
  {
    "name": "DECIOLÂNDIA",
    "codigoestacao": "1457003",
    "lat": -14.1833,
    "lng": -57.5069,
    "altitude": "620.0",
    "bacia": "RIO AMAZONAS",
    "municipio": "DIAMANTINO",
    "ultimaAtualizacao": "2019-12-03 00:00:00.0",
    "tipoEstacao": "Pluviometrica"
  },
  {
    "name": "BRASFOR",
    "codigoestacao": "1458002",
    "lat": -14.3842,
    "lng": -58.2344,
    "altitude": "605.0",
    "bacia": "RIO AMAZONAS",
    "municipio": "TANGARÁ DA SERRA",
    "ultimaAtualizacao": "2023-07-10 00:00:00.0",
    "tipoEstacao": "Pluviometrica"
  },
  {
    "name": "PONTE ESCOLA AGRÍCOLA",
    "codigoestacao": "17093240",
    "lat": -11.4491666666667,
    "lng": -58.7236111111111,
    "altitude": "N/A",
    "bacia": "RIO AMAZONAS",
    "municipio": "JUÍNA",
    "ultimaAtualizacao": "2005-06-02 00:00:00.0",
    "tipoEstacao": "Fluviometrica"
  },
  {
    "name": "PCH GARGANTA DA JARARACA MONTANTE 1",
    "codigoestacao": "17093400",
    "lat": -13.8622,
    "lng": -57.7856,
    "altitude": "454.0",
    "bacia": "RIO AMAZONAS",
    "municipio": "CAMPO NOVO DO PARECIS",
    "ultimaAtualizacao": "2014-06-09 00:00:00.0",
    "tipoEstacao": "Fluviometrica"
  },
  {
    "name": "PCH JUÍ 117 MONTANTE 1",
    "codigoestacao": "1359016",
    "lat": -13.3856,
    "lng": -59.3922,
    "altitude": "418.0",
    "bacia": "RIO AMAZONAS",
    "municipio": "CAMPOS DE JÚLIO",
    "ultimaAtualizacao": "2020-03-31 00:00:00.0",
    "tipoEstacao": "Pluviometrica"
  },