[
  {
    "name": "ARAGUAIANA",
    "codigoestacao": "24850000",
    "lat": -15.7381,
    "lng": -51.8281,
    "altitude": "278.0",
    "bacia": "RIO TOCANTINS",
    "municipio": "ARAGUAIANA",
    "ultimaAtualizacao": "2024-05-09 00:00:00.0",
    "tipoEstacao": "Fluviometrica"
  },
  {
    "name": "TESOURO",
    "codigoestacao": "24500000",
    "lat": -16.0778,
    "lng": -53.5481,
    "altitude": "391.0",
    "bacia": "RIO TOCANTINS",
    "municipio": "TESOURO",
    "ultimaAtualizacao": "2024-05-09 00:00:00.0",
    "tipoEstacao": "Fluviometrica"
  },
  {
    "name": "UHE JURUENA MONTANTE",
    "codigoestacao": "17091085",
    "lat": -13.4383,
    "lng": -58.9981,
    "altitude": "455.0",
    "bacia": "RIO AMAZONAS",
    "municipio": "SAPEZAL",
    "ultimaAtualizacao": "2024-04-26 00:00:00.0",
    "tipoEstacao": "Fluviometrica"
  },
  {
    "name": "PCH JESUÍTA BARRAMENTO",
    "codigoestacao": "17091046",
    "lat": -13.3181,
    "lng": -59.0322,
    "altitude": "405.0",
    "bacia": "RIO AMAZONAS",
    "municipio": "SAPEZAL",
    "ultimaAtualizacao": "2024-09-12 00:00:00.0",
    "tipoEstacao": "Fluviometrica"
  },
  {
    "name": "PCH SANTA LÚCIA I E II MONTANTE 2",
    "codigoestacao": "17090400",
    "lat": -13.5956,
    "lng": -59.0325,
    "altitude": "490.0",
    "bacia": "RIO AMAZONAS",
    "municipio": "CAMPOS DE JÚLIO",
    "ultimaAtualizacao": "2024-03-22 00:00:00.0",
    "tipoEstacao": "Fluviometrica"
  },
  {
    "name": "PCH SANTA LÚCIA I E II MONTANTE 1",
    "codigoestacao": "17090500",
    "lat": -13.5567,
    "lng": -59.0283,
    "altitude": "479.0",
    "bacia": "RIO AMAZONAS",
    "municipio": "SAPEZAL",
    "ultimaAtualizacao": "2024-03-22 00:00:00.0",
    "tipoEstacao": "Fluviometrica"
  },
  {
    "name": "PCH SANTA LÚCIA I E II BARRAMENTO",
    "codigoestacao": "17090580",
    "lat": -13.5436,
    "lng": -59.0303,
    "altitude": "477.0",
    "bacia": "RIO AMAZONAS",
    "municipio": "SAPEZAL",
    "ultimaAtualizacao": "2024-03-22 00:00:00.0",
    "tipoEstacao": "Fluviometrica"
  },
  {
    "name": "PCH SANTA LÚCIA I E II JUSANTE",
    "codigoestacao": "17090600",
    "lat": -13.5425,
    "lng": -59.025,
    "altitude": "466.0",
    "bacia": "RIO AMAZONAS",
    "municipio": "SAPEZAL",
    "ultimaAtualizacao": "2024-03-22 00:00:00.0",
    "tipoEstacao": "Fluviometrica"
  },
  {
    "name": "PCH JESUÍTA MONTANTE",
    "codigoestacao": "17090700",
    "lat": -13.5156,
    "lng": -59.0225,
    "altitude": "470.0",
    "bacia": "RIO AMAZONAS",
    "municipio": "CAMPOS DE JÚLIO",
    "ultimaAtualizacao": "2024-09-12 00:00:00.0",
    "tipoEstacao": "Fluviometrica"
  },
  {
    "name": "TRÊS MARIAS",
    "codigoestacao": "17420000",
    "lat": -7.6147,
    "lng": -57.9503,
    "altitude": "129.0",
    "bacia": "RIO AMAZONAS",
    "municipio": "ARIPUANÃ",
    "ultimaAtualizacao": "2024-02-09 00:00:00.0",
    "tipoEstacao": "Fluviometrica"
  },
  {
    "name": "UHE TELES PIRES RIO SANTA HELENA",
    "codigoestacao": "17381600",
    "lat": -9.8028,
    "lng": -56.335,
    "altitude": "244.0",
    "bacia": "RIO AMAZONAS",
    "municipio": "ALTA FLORESTA",
    "ultimaAtualizacao": "2024-01-08 00:00:00.0",
    "tipoEstacao": "Fluviometrica"
  },
  {
    "name": "UHE TELES PIRES RIO CRISTALINO",
    "codigoestacao": "17378000",
    "lat": -9.5981,
    "lng": -55.9306,
    "altitude": "245.0",
    "bacia": "RIO AMAZONAS",
    "municipio": "ALTA FLORESTA",
    "ultimaAtualizacao": "2024-01-08 00:00:00.0",
    "tipoEstacao": "Fluviometrica"
  },
  {
    "name": "PCH CANOA QUEBRADA RIBEIRÃO RANCHÃO",
    "codigoestacao": "17229000",
    "lat": -13.2986,
    "lng": -55.9122,
    "altitude": "383.0",
    "bacia": "RIO AMAZONAS",
    "municipio": "LUCAS DO RIO VERDE",
    "ultimaAtualizacao": "2024-09-02 00:00:00.0",
    "tipoEstacao": "Fluviometrica"
  },
  {
    "name": "PCH CANOA QUEBRADA MONTANTE",
    "codigoestacao": "17230000",
    "lat": -13.0519,
    "lng": -55.905,
    "altitude": "377.0",
    "bacia": "RIO AMAZONAS",
    "municipio": "LUCAS DO RIO VERDE",
    "ultimaAtualizacao": "2024-09-02 00:00:00.0",
    "tipoEstacao": "Fluviometrica"
  },
  {
    "name": "CGH CORRENTÃO JUSANTE",
    "codigoestacao": "17223000",
    "lat": -13.8217,
    "lng": -56.9889,
    "altitude": "418.0",
    "bacia": "RIO AMAZONAS",
    "municipio": "SÃO JOSÉ DO RIO CLARO",
    "ultimaAtualizacao": "2024-06-04 00:00:00.0",
    "tipoEstacao": "Fluviometrica"
  },
  {
    "name": "CGH SANTO ANTÔNIO I JUSANTE",
    "codigoestacao": "17224100",
    "lat": -14.0506,
    "lng": -56.9619,
    "altitude": "400.0",
    "bacia": "RIO AMAZONAS",
    "municipio": "DIAMANTINO",
    "ultimaAtualizacao": "2024-04-05 00:00:00.0",
    "tipoEstacao": "Fluviometrica"
  },
  {
    "name": "PCH CANOA QUEBRADA RIBEIRÃO GRANDE",
    "codigoestacao": "17228000",
    "lat": -13.4017,
    "lng": -55.8269,
    "altitude": "382.0",
    "bacia": "RIO AMAZONAS",
    "municipio": "NOVA MUTUM",
    "ultimaAtualizacao": "2024-09-02 00:00:00.0",
    "tipoEstacao": "Fluviometrica"
  },
  {
    "name": "CGH ÁGUA QUENTE MONTANTE",
    "codigoestacao": "17211100",
    "lat": -13.4383,
    "lng": -58.6981,
    "altitude": "483.0",
    "bacia": "RIO AMAZONAS",
    "municipio": "SAPEZAL",
    "ultimaAtualizacao": "2024-02-19 00:00:00.0",
    "tipoEstacao": "Fluviometrica"
  },
  {
    "name": "CGH NOVO COLORADO BARRAMENTO",
    "codigoestacao": "17099100",
    "lat": -13.9836,
    "lng": -57.0681,
    "altitude": "464.0",
    "bacia": "RIO AMAZONAS",
    "municipio": "DIAMANTINO",
    "ultimaAtualizacao": "2024-08-12 00:00:00.0",
    "tipoEstacao": "Fluviometrica"
  },
  {
    "name": "CGH NOVO COLORADO JUSANTE",
    "codigoestacao": "17099130",
    "lat": -13.9764,
    "lng": -57.0428,
    "altitude": "440.0",
    "bacia": "RIO AMAZONAS",
    "municipio": "DIAMANTINO",
    "ultimaAtualizacao": "2024-08-12 00:00:00.0",
    "tipoEstacao": "Fluviometrica"
  },
  {
    "name": "CGH ÁGUA VERDE JUSANTE",
    "codigoestacao": "17099200",
    "lat": -13.965,
    "lng": -56.8833,
    "altitude": "383.0",
    "bacia": "RIO AMAZONAS",
    "municipio": "DIAMANTINO",
    "ultimaAtualizacao": "2024-07-18 00:00:00.0",
    "tipoEstacao": "Fluviometrica"
  },
  {
    "name": "CGH GALHEIROS BARRAMENTO",
    "codigoestacao": "26033650",
    "lat": -15.0989,
    "lng": -54.7211,
    "altitude": "708.0",
    "bacia": "RIO TOCANTINS",
    "municipio": "CAMPO VERDE",
    "ultimaAtualizacao": "2024-08-15 00:00:00.0",
    "tipoEstacao": "Fluviometrica"
  },
  {
    "name": "CGH GALHEIROS JUSANTE",
    "codigoestacao": "26033655",
    "lat": -15.1108,
    "lng": -54.7167,
    "altitude": "620.0",
    "bacia": "RIO TOCANTINS",
    "municipio": "CAMPO VERDE",
    "ultimaAtualizacao": "2024-08-15 00:00:00.0",
    "tipoEstacao": "Fluviometrica"
  },
  {
    "name": "CGH SUSPIRO JUSANTE",
    "codigoestacao": "26034700",
    "lat": -15.0678,
    "lng": -53.9453,
    "altitude": "571.0",
    "bacia": "RIO TOCANTINS",
    "municipio": "SANTO ANTÔNIO DO LESTE",
    "ultimaAtualizacao": "2024-05-28 00:00:00.0",
    "tipoEstacao": "Fluviometrica"
  },
  {
    "name": "XAVANTINA",
    "codigoestacao": "26100000",
    "lat": -14.6725,
    "lng": -52.355,
    "altitude": "266.0",
    "bacia": "RIO TOCANTINS",
    "municipio": "NOVA XAVANTINA",
    "ultimaAtualizacao": "2024-05-09 00:00:00.0",
    "tipoEstacao": "Fluviometrica"
  },
  {
    "name": "RIO PINDAÍBA",
    "codigoestacao": "26150000",
    "lat": -14.5997,
    "lng": -51.7197,
    "altitude": "281.0",
    "bacia": "RIO TOCANTINS",
    "municipio": "NOVA XAVANTINA",
    "ultimaAtualizacao": "2024-05-09 00:00:00.0",
    "tipoEstacao": "Fluviometrica"
  },
  {
    "name": "SÃO FÉLIX DO ARAGUAIA",
    "codigoestacao": "26350000",
    "lat": -11.6181,
    "lng": -50.6625,
    "altitude": "226.0",
    "bacia": "RIO TOCANTINS",
    "municipio": "SÃO FÉLIX DO ARAGUAIA",
    "ultimaAtualizacao": "2024-05-09 00:00:00.0",
    "tipoEstacao": "Fluviometrica"
  },
  {
    "name": "PCH MUTUM I MONTANTE",
    "codigoestacao": "66455900",
    "lat": -16.4239,
    "lng": -55.2986,
    "altitude": "386.0",
    "bacia": "RIO PARANÁ",
    "municipio": "SANTO ANTÔNIO DO LEVERGER",
    "ultimaAtualizacao": "2024-02-29 00:00:00.0",
    "tipoEstacao": "Fluviometrica"
  },
  {
    "name": "ACIMA DO CÓRREGO GRANDE",
    "codigoestacao": "66460000",
    "lat": -16.6081,
    "lng": -55.2064,
    "altitude": "139.0",
    "bacia": "RIO PARANÁ",
    "municipio": "SANTO ANTÔNIO DO LEVERGER",
    "ultimaAtualizacao": "2024-05-09 00:00:00.0",
    "tipoEstacao": "Fluviometrica"
  },
  {
    "name": "SÃO JERÔNIMO",
    "codigoestacao": "66600000",
    "lat": -17.2017,
    "lng": -56.0086,
    "altitude": "112.0",
    "bacia": "RIO PARANÁ",
    "municipio": "BARÃO DE MELGAÇO",
    "ultimaAtualizacao": "2024-05-09 00:00:00.0",
    "tipoEstacao": "Fluviometrica"
  },
  {
    "name": "SÃO JOSÉ DO PIQUIRI",
    "codigoestacao": "66650000",
    "lat": -17.2917,
    "lng": -56.3872,
    "altitude": "150.0",
    "bacia": "RIO PARANÁ",
    "municipio": "BARÃO DE MELGAÇO",
    "ultimaAtualizacao": "2024-05-09 00:00:00.0",
    "tipoEstacao": "Fluviometrica"
  },
  {
    "name": "POUSADA TAIAMÃ  (Ex-Porto Jofre)",
    "codigoestacao": "66710000",
    "lat": -17.3656,
    "lng": -56.7747,
    "altitude": "109.0",
    "bacia": "RIO PARANÁ",
    "municipio": "POCONÉ",
    "ultimaAtualizacao": "2024-05-09 00:00:00.0",
    "tipoEstacao": "Fluviometrica"
  },
  {
    "name": "PCH LAJARI MONTANTE",
    "codigoestacao": "66830000",
    "lat": -17.9319,
    "lng": -53.3753,
    "altitude": "774.3",
    "bacia": "RIO PARANÁ",
    "municipio": "ALTO TAQUARI",
    "ultimaAtualizacao": "2024-06-21 00:00:00.0",
    "tipoEstacao": "Fluviometrica"
  },
  {
    "name": "CGH GLICÉRIO ROCHA MONTANTE",
    "codigoestacao": "66223100",
    "lat": -14.9944,
    "lng": -55.1186,
    "altitude": "664.0",
    "bacia": "RIO PARANÁ",
    "municipio": "NOVA BRASILÂNDIA",
    "ultimaAtualizacao": "2024-02-20 00:00:00.0",
    "tipoEstacao": "Fluviometrica"
  },
  {
    "name": "CUIABÁ",
    "codigoestacao": "66260006",
    "lat": -15.6189,
    "lng": -56.0997,
    "altitude": "140.0",
    "bacia": "RIO PARANÁ",
    "municipio": "CUIABÁ",
    "ultimaAtualizacao": "2024-04-23 00:00:00.0",
    "tipoEstacao": "Fluviometrica"
  },
  {
    "name": "SANTO ANTÔNIO DO LEVERGER",
    "codigoestacao": "66270000",
    "lat": -15.8697,
    "lng": -56.0761,
    "altitude": "130.0",
    "bacia": "RIO PARANÁ",
    "municipio": "SANTO ANTÔNIO DO LEVERGER",
    "ultimaAtualizacao": "2024-05-09 00:00:00.0",
    "tipoEstacao": "Fluviometrica"
  },
  {
    "name": "BARÃO DE MELGAÇO",
    "codigoestacao": "66280000",
    "lat": -16.1928,
    "lng": -55.9669,
    "altitude": "125.0",
    "bacia": "RIO PARANÁ",
    "municipio": "BARÃO DE MELGAÇO",
    "ultimaAtualizacao": "2024-05-09 00:00:00.0",
    "tipoEstacao": "Fluviometrica"
  },
  {
    "name": "SÃO PEDRO DA CIPA",
    "codigoestacao": "66380000",
    "lat": -15.9981,
    "lng": -54.9217,
    "altitude": "239.0",
    "bacia": "RIO PARANÁ",
    "municipio": "SÃO PEDRO DA CIPA",
    "ultimaAtualizacao": "2024-05-14 00:00:00.0",
    "tipoEstacao": "Fluviometrica"
  },
  {
    "name": "RIO SÃO LOURENÇO - SÃO PEDRO DA CIPA",
    "codigoestacao": "66380100",
    "lat": -15.9981,
    "lng": -54.9217,
    "altitude": "N/A",
    "bacia": "RIO PARANÁ",
    "municipio": "SÃO PEDRO DA CIPA",
    "ultimaAtualizacao": "2024-05-14 00:00:00.0",
    "tipoEstacao": "Fluviometrica"
  },
  {
    "name": "PCH SETE QUEDAS ALTAS JUSANTE",
    "codigoestacao": "66400357",
    "lat": -16.2889,
    "lng": -55.0106,
    "altitude": "222.0",
    "bacia": "RIO PARANÁ",
    "municipio": "JUSCIMEIRA",
    "ultimaAtualizacao": "2024-07-19 00:00:00.0",
    "tipoEstacao": "Fluviometrica"
  },
  {
    "name": "CGH DIAMANTE MONTANTE 2",
    "codigoestacao": "66005400",
    "lat": -14.3153,
    "lng": -56.7269,
    "altitude": "336.0",
    "bacia": "RIO PARANÁ",
    "municipio": "NORTELÂNDIA",
    "ultimaAtualizacao": "2024-01-03 00:00:00.0",
    "tipoEstacao": "Fluviometrica"
  },
  {
    "name": "CGH DIAMANTE MONTANTE 1",
    "codigoestacao": "66005600",
    "lat": -14.3272,
    "lng": -56.7494,
    "altitude": "334.0",
    "bacia": "RIO PARANÁ",
    "municipio": "NORTELÂNDIA",
    "ultimaAtualizacao": "2024-01-04 00:00:00.0",
    "tipoEstacao": "Fluviometrica"
  },
  {
    "name": "CGH DIAMANTE BARRAMENTO",
    "codigoestacao": "66005800",
    "lat": -14.3464,
    "lng": -56.7947,
    "altitude": "324.0",
    "bacia": "RIO PARANÁ",
    "municipio": "NORTELÂNDIA",
    "ultimaAtualizacao": "2024-01-03 00:00:00.0",
    "tipoEstacao": "Fluviometrica"
  },
  {
    "name": "CGH DIAMANTE JUSANTE",
    "codigoestacao": "66005900",
    "lat": -14.3456,
    "lng": -56.7964,
    "altitude": "306.0",
    "bacia": "RIO PARANÁ",
    "municipio": "NORTELÂNDIA",
    "ultimaAtualizacao": "2024-01-03 00:00:00.0",
    "tipoEstacao": "Fluviometrica"
  },
  {
    "name": "BARRA DO BUGRES",
    "codigoestacao": "66010000",
    "lat": -15.0761,
    "lng": -57.1819,
    "altitude": "140.0",
    "bacia": "RIO PARANÁ",
    "municipio": "BARRA DO BUGRES",
    "ultimaAtualizacao": "2024-05-09 00:00:00.0",
    "tipoEstacao": "Fluviometrica"
  },
  {
    "name": "UHE JUBA I MONTANTE",
    "codigoestacao": "66051000",
    "lat": -14.7106,
    "lng": -58.1025,
    "altitude": "430.0",
    "bacia": "RIO PARANÁ",
    "municipio": "TANGARÁ DA SERRA",
    "ultimaAtualizacao": "2024-05-29 00:00:00.0",
    "tipoEstacao": "Fluviometrica"
  },
  {
    "name": "UHE JUBA II JUSANTE",
    "codigoestacao": "66052500",
    "lat": -14.7606,
    "lng": -58.0242,
    "altitude": "274.0",
    "bacia": "RIO PARANÁ",
    "municipio": "TANGARÁ DA SERRA",
    "ultimaAtualizacao": "2024-05-29 00:00:00.0",
    "tipoEstacao": "Fluviometrica"
  },
  {
    "name": "PCH GRAÇA BRENNAND BARRAMENTO",
    "codigoestacao": "66052600",
    "lat": -14.7956,
    "lng": -57.9706,
    "altitude": "276.0",
    "bacia": "RIO PARANÁ",
    "municipio": "TANGARÁ DA SERRA",
    "ultimaAtualizacao": "2024-03-22 00:00:00.0",
    "tipoEstacao": "Fluviometrica"
  },
  {
    "name": "CGH CARAMUJO BARRAMENTO",
    "codigoestacao": "66057200",
    "lat": -14.95,
    "lng": -58.0575,
    "altitude": "473.0",
    "bacia": "RIO PARANÁ",
    "municipio": "BARRA DO BUGRES",
    "ultimaAtualizacao": "2024-09-10 00:00:00.0",
    "tipoEstacao": "Fluviometrica"
  },
  {
    "name": "CGH CARAMUJO JUSANTE",
    "codigoestacao": "66057250",
    "lat": -14.9703,
    "lng": -58.0356,
    "altitude": "222.0",
    "bacia": "RIO PARANÁ",
    "municipio": "BARRA DO BUGRES",
    "ultimaAtualizacao": "2024-09-10 00:00:00.0",
    "tipoEstacao": "Fluviometrica"
  },
  {
    "name": "CÁCERES (DNPVN)",
    "codigoestacao": "66070004",
    "lat": -16.0761,
    "lng": -57.7022,
    "altitude": "262.0",
    "bacia": "RIO PARANÁ",
    "municipio": "CÁCERES",
    "ultimaAtualizacao": "2024-05-09 00:00:00.0",
    "tipoEstacao": "Fluviometrica"
  },
  {
    "name": "PCH SALTO BARRAMENTO",
    "codigoestacao": "66071395",
    "lat": -15.2867,
    "lng": -58.7111,
    "altitude": "550.0",
    "bacia": "RIO PARANÁ",
    "municipio": "INDIAVAÍ",
    "ultimaAtualizacao": "2024-07-26 00:00:00.0",
    "tipoEstacao": "Fluviometrica"
  },
  {
    "name": "PORTO CONCEIÇÃO",
    "codigoestacao": "66120000",
    "lat": -17.1433,
    "lng": -57.3594,
    "altitude": "107.0",
    "bacia": "RIO PARANÁ",
    "municipio": "CÁCERES",
    "ultimaAtualizacao": "2024-05-09 00:00:00.0",
    "tipoEstacao": "Fluviometrica"
  },
  {
    "name": "BELA VISTA DO NORTE",
    "codigoestacao": "66125000",
    "lat": -17.6414,
    "lng": -57.6906,
    "altitude": "87.0",
    "bacia": "RIO PARANÁ",
    "municipio": "CÁCERES",
    "ultimaAtualizacao": "2024-05-09 00:00:00.0",
    "tipoEstacao": "Fluviometrica"
  }
]